[
    {
        "endereco": "Al. Afonso Schmidt, 494 - Santa Teresinha - São Paulo - SP, 02450-000",
        "nome": "DROGASIL - Santa Teresinha",
        "latitude": "-23.4961665",
        "longitude": "-46.6365531",
        "cep": "02450-000",
        "horario_funcionamento": "-",
        "telefone": "29753760/29755479",
        "itens_recebidos": [
            "medicamentos"
        ],
        "geohash": "6gyf6f8kct1e"
    },
    {
        "endereco": "Al. Barros, 562 - Santa Cecilia - São Paulo - SP, 01232-001",
        "nome": "RAIA - Santa Cecilia",
        "latitude": "-23.5360864",
        "longitude": "-46.6564844",
        "cep": "01232-001",
        "horario_funcionamento": "-",
        "telefone": "36662697",
        "itens_recebidos": [
            "medicamentos"
        ],
        "geohash": "6gyf473u357x"
    },
    {
        "endereco": "Al. Das Limeiras, 46 - Conj. Res. Alpes do Jaragua - São Paulo - SP, 05187-634",
        "nome": "UBS Alpes do Jaraguá",
        "latitude": "-23.4469356",
        "longitude": "-46.7537353",
        "cep": "05187-634",
        "horario_funcionamento": "-",
        "telefone": "156",
        "itens_recebidos": [
            "medicamentos"
        ],
        "geohash": "6gyf85dgxn2j"
    },
    {
        "endereco": "Al. dos Arapanés, 1179 - Indianópolis - São Paulo - SP, 04524-002",
        "nome": "DROGASIL - Indianópolis",
        "latitude": "-23.6073632",
        "longitude": "-46.6674566",
        "cep": "04524-002",
        "horario_funcionamento": "-",
        "telefone": "5092-1763/5092-2993",
        "itens_recebidos": [
            "medicamentos"
        ],
        "geohash": "6gycdn3v1kw1"
    },
    {
        "endereco": "Al. Dos Guatás, 1261 - Vila da Saúde - São Paulo - SP, 04053-042",
        "nome": "Pão de Açúcar - Guatás",
        "latitude": "-23.6169353",
        "longitude": "-46.6494516",
        "cep": "04053-042",
        "horario_funcionamento": "07:00 às 21:00",
        "telefone": "2276-0020",
        "itens_recebidos": [
            "plástico",
            "pilhas e baterias",
            "metal",
            "cápsulas de café",
            "óleo",
            "papel",
            "vidro"
        ],
        "geohash": "6gycdkwvkupt"
    },
    {
        "endereco": "Al. Dos Maracatins, 1061 - Moema - São Paulo - SP, 04089-013",
        "nome": "Casa Toni - Moema",
        "latitude": "-23.6095516",
        "longitude": "-46.6630259",
        "cep": "04089-013",
        "horario_funcionamento": "Segunda a Sexta: 08:00 às 18:00Sábado: 08:00 às 13:00",
        "telefone": "5532-3899",
        "itens_recebidos": [
            "óleo"
        ],
        "geohash": "6gycdnj02sw4"
    },
    {
        "endereco": "Al. Dos Maracatins, 1545 - Indianópolis - São Paulo - SP, 04089-015",
        "nome": "Pão de Açúcar - Maracatins",
        "latitude": "-23.6133762",
        "longitude": "-46.6662682",
        "cep": "04089-015",
        "horario_funcionamento": "Segunda a Sábado: 07:00 às 21:00Domingo e Feriado: 08:00 às 21:00",
        "telefone": "5044-1144",
        "itens_recebidos": [
            "plástico",
            "pilhas e baterias",
            "metal",
            "cápsulas de café",
            "óleo",
            "papel",
            "vidro"
        ],
        "geohash": "6gycdj6dj5sk"
    },
    {
        "endereco": "Al. dos Maracatins, 538 - Indianópolis - São Paulo - SP, 04089-011",
        "nome": "Hidroceram Loja Tudo",
        "latitude": "-23.605569",
        "longitude": "-46.659941",
        "cep": "04089-011",
        "horario_funcionamento": "Segunda a sexta. das 8h às 18h. Sábados. das 9h às 13h",
        "telefone": "3774-0908",
        "itens_recebidos": [
            "lâmpadas",
            "pilhas e baterias"
        ],
        "geohash": "6gycdnxr8e42"
    },
    {
        "endereco": "Al. dos Nhambiquaras, 1017 - Moema - São Paulo - SP, 04090-012",
        "nome": "DROGASIL - Moema",
        "latitude": "-23.6078907",
        "longitude": "-46.6599556",
        "cep": "04090-012",
        "horario_funcionamento": "-",
        "telefone": "50515238/50511331",
        "itens_recebidos": [
            "medicamentos"
        ],
        "geohash": "6gycdnr604pq"
    },
    {
        "endereco": "Al. dos Uapês, 447 - Planalto Paulista - São Paulo - SP, 04067-031",
        "nome": "Ecourbis Conteineres",
        "latitude": "-23.6141317",
        "longitude": "-46.6509788",
        "cep": "04067-031",
        "horario_funcionamento": "-",
        "telefone": "156",
        "itens_recebidos": [
            "metal",
            "plástico",
            "papel",
            "vidro"
        ],
        "geohash": "6gycdmjv9quc"
    },
    {
        "endereco": "Al. Gabriel Monteiro da Silva, 1351 - Jardim America - São Paulo - SP, 01441-002",
        "nome": "Pão de Açúcar - Jardim Paulistano",
        "latitude": "-23.5717212",
        "longitude": "-46.6811898",
        "cep": "01441-002",
        "horario_funcionamento": "Segunda a Sábado: 07:00 às 22:00Domingo e Feriado: 08:00 às 21:00",
        "telefone": "3060-2560",
        "itens_recebidos": [
            "plástico",
            "pilhas e baterias",
            "metal",
            "cápsulas de café",
            "óleo",
            "papel",
            "vidro",
            "isopor"
        ],
        "geohash": "6gyccszuc2wn"
    },
    {
        "endereco": "Al. Iraé, 533 - Indianópolis - São Paulo - SP, 04075-000",
        "nome": "RAIA - Indianópolis",
        "latitude": "-23.6040008",
        "longitude": "-46.6610231",
        "cep": "04075-000",
        "horario_funcionamento": "-",
        "telefone": "26151649",
        "itens_recebidos": [
            "medicamentos"
        ],
        "geohash": "6gycdpn2xr76"
    },
    {
        "endereco": "Al. Jaú,1725 - Jardim Paulista - São Paulo - SP, 01420-002",
        "nome": "Fleury Unidade Jardins",
        "latitude": "-23.558865",
        "longitude": "-46.663450",
        "cep": "01420-002",
        "horario_funcionamento": "Segunda a sexta, das 06:30h às 12:30h. Sábados das 06:30h às 12:30h. Domingos fechado",
        "telefone": "3179-0822",
        "itens_recebidos": [
            "raio-x"
        ],
        "geohash": "6gycfphxwv3b"
    },
    {
        "endereco": "Al. Lorena, 1488 - Jardim Paulista - São Paulo - SP, 01424-004",
        "nome": "DROGASIL - Jardim Paulista",
        "latitude": "-23.5639583",
        "longitude": "-46.6655048",
        "cep": "01424-004",
        "horario_funcionamento": "-",
        "telefone": "30812682/30620747",
        "itens_recebidos": [
            "medicamentos"
        ],
        "geohash": "6gycfn71yzv9"
    },
    {
        "endereco": "Al. Lorena, 264 - Jardins - São Paulo - SP, 01424-000",
        "nome": "RAIA - Jardins",
        "latitude": "-23.5718914",
        "longitude": "-46.657229",
        "cep": "01424-000",
        "horario_funcionamento": "-",
        "telefone": "30522446",
        "itens_recebidos": [
            "medicamentos"
        ],
        "geohash": "6gycfkc5zbbq"
    },
    {
        "endereco": "Al. Min. Rocha Azevedo, 1136 - Jardim Paulista - São Paulo - SP, 01410-002",
        "nome": "Pão de Açúcar - Oscar Freire",
        "latitude": "-23.5662195",
        "longitude": "-46.66501",
        "cep": "01410-002",
        "horario_funcionamento": "06:00 às 22:00",
        "telefone": "3088-6868",
        "itens_recebidos": [
            "pilhas e baterias"
        ],
        "geohash": "6gycfjgsf6q8"
    },
    {
        "endereco": "Al. Ribeiro da Silva, 1087 - Campos Elíseos - São Paulo - SP, 01201-050",
        "nome": "DROGASIL - Campos Elíseos",
        "latitude": "-23.534042",
        "longitude": "-46.6517621",
        "cep": "01201-050",
        "horario_funcionamento": "-",
        "telefone": "36662233",
        "itens_recebidos": [
            "medicamentos"
        ],
        "geohash": "6gyf47v0r0sg"
    },
    {
        "endereco": "Av. Adolfo Pinheiro X R. Cap. Tiago Luz - Santo Amaro - São Paulo - SP, 04746-070",
        "nome": "PEV - Largo 13 de Maio",
        "latitude": "-23.6534039",
        "longitude": "-46.7065396",
        "cep": "04746-070",
        "horario_funcionamento": "-",
        "telefone": "156",
        "itens_recebidos": [
            "metal",
            "plástico",
            "papel",
            "vidro"
        ],
        "geohash": "6gyc3nj2ftzv"
    },
    {
        "endereco": "Av. Adolfo Pinheiro, 256 - Santo Amaro - São Paulo - SP, 04734-000",
        "nome": "PEV - Estação Adolfo Pinheiro",
        "latitude": "-23.6502711",
        "longitude": "-46.7042805",
        "cep": "04734-000",
        "horario_funcionamento": "-",
        "telefone": "156",
        "itens_recebidos": [
            "metal",
            "plástico",
            "papel",
            "vidro"
        ],
        "geohash": "6gyc3nwgpmum"
    },
    {
        "endereco": "Av. Águia de Haia, 3611 - Jardim Soraia - São Paulo - SP, 03889-100",
        "nome": "DROGASIL - Jardim Soraia",
        "latitude": "-23.5143032",
        "longitude": "-46.4768748",
        "cep": "03889-100",
        "horario_funcionamento": "-",
        "telefone": "2043-6067",
        "itens_recebidos": [
            "medicamentos"
        ],
        "geohash": "6gyfnrke624m"
    },
    {
        "endereco": "Av. Alcântara Machado, 2000 - Brás - São Paulo - SP, 03102-004",
        "nome": "C&C - Radial Leste",
        "latitude": "-23.5499984",
        "longitude": "-46.6054201",
        "cep": "03102-004",
        "horario_funcionamento": "Segunda a Sábado: 08:00 às 21:00Domingos e Feriados: 09:00 às 20:00",
        "telefone": "4001-0100",
        "itens_recebidos": [
            "óleo"
        ],
        "geohash": "6gyf52ygr405"
    },
    {
        "endereco": "Av. Alexandrina Malisano de Lima, 289 - Jardim Herculano - São Paulo - SP, 04920-000",
        "nome": "PEV - 100º Distrito Policial - Jardim Herculano",
        "latitude": "-23.6929894",
        "longitude": "-46.7593588",
        "cep": "04920-000",
        "horario_funcionamento": "-",
        "telefone": "156",
        "itens_recebidos": [
            "metal",
            "plástico",
            "papel",
            "vidro"
        ],
        "geohash": "6gy9pyyf7fwv"
    },
    {
        "endereco": "Av. Alexios Jafet, 150 - Jardim Ipanema (Zona Oeste) - São Paulo - SP, 05187-010",
        "nome": "Ecoponto Alexios Jafet",
        "latitude": "-23.4536568",
        "longitude": "-46.7491425",
        "cep": "05187-010",
        "horario_funcionamento": "Segunda a sábado, das 6hs às 22hs e aos domingos e feriados das 6hs às 18hs.",
        "telefone": "156",
        "itens_recebidos": [
            "sobras de poda de árvore",
            "móveis velhos",
            "restos de azulejos",
            "cimento",
            "materiais volumosos",
            "resíduos da construção civil",
            "tijolo",
            "papel",
            "vidro",
            "entulho",
            "alumínio"
        ],
        "geohash": "6gyf84qkd12z"
    },
    {
        "endereco": "Av. Almirante Delamare, 1534 - Cidade Nova Heliópolis - São Paulo - SP, 04230-000",
        "nome": "PEV - AME Barradas",
        "latitude": "-23.6096032",
        "longitude": "-46.5897950",
        "cep": "04230-000",
        "horario_funcionamento": "-",
        "telefone": "156",
        "itens_recebidos": [
            "plástico",
            "metal",
            "óleo",
            "papel",
            "vidro"
        ],
        "geohash": "6gycey4254fz"
    },
    {
        "endereco": "Av. Almirante Delamare, 3033 - Cidade Nova Heliópolis - São Paulo - SP, 04230-040",
        "nome": "UBS Heliopolis",
        "latitude": "-23.61027",
        "longitude": "-46.5823792",
        "cep": "04230-040",
        "horario_funcionamento": "-",
        "telefone": "156",
        "itens_recebidos": [
            "medicamentos"
        ],
        "geohash": "6gycevzspyst"
    },
    {
        "endereco": "Av. Almyr Dehar, 201 - Brasilândia - São Paulo - SP, 02846-000",
        "nome": "UBS Jardim Icarai - Brasilândia - Dr. Daniel Alves Grangeiro",
        "latitude": "-23.4658921",
        "longitude": "-46.6964655",
        "cep": "02846-000",
        "horario_funcionamento": "-",
        "telefone": "156",
        "itens_recebidos": [
            "medicamentos"
        ],
        "geohash": "6gyf92htm2xt"
    },
    {
        "endereco": "Av. Álvaro Ramos, 2241 - Quarta Parada - São Paulo - SP, 03331-001",
        "nome": "DROGASIL - Quarta Parada",
        "latitude": "-23.5545512",
        "longitude": "-46.5778771",
        "cep": "03331-001",
        "horario_funcionamento": "-",
        "telefone": "2606-2255",
        "itens_recebidos": [
            "medicamentos"
        ],
        "geohash": "6gyfh050bc3t"
    },
    {
        "endereco": "Av. Amador Bueno da Veiga, 1586 - Penha de França - São Paulo - SP, 03636-100",
        "nome": "RAIA - Penha de França",
        "latitude": "-23.5220586",
        "longitude": "-46.5300754",
        "cep": "03636-100",
        "horario_funcionamento": "-",
        "telefone": "26857028",
        "itens_recebidos": [
            "medicamentos"
        ],
        "geohash": "6gyfjjvy4dmn"
    },
    {
        "endereco": "Av. Amador Bueno da Veiga, 1950 - Penha de França - São Paulo - SP, 03636-100",
        "nome": "DROGASIL - Penha de França",
        "latitude": "-23.5221582",
        "longitude": "-46.5269827",
        "cep": "03636-100",
        "horario_funcionamento": "-",
        "telefone": "27913544",
        "itens_recebidos": [
            "medicamentos"
        ],
        "geohash": "6gyfjmbj6xzh"
    },
    {
        "endereco": "Av. Angélica, 1062 - Santa Cecilia - São Paulo - SP, 01228-100",
        "nome": "RAIA - Santa Cecilia",
        "latitude": "-23.542096",
        "longitude": "-46.6563583",
        "cep": "01228-100",
        "horario_funcionamento": "-",
        "telefone": "38252221",
        "itens_recebidos": [
            "medicamentos"
        ],
        "geohash": "6gyf463ck51x"
    },
    {
        "endereco": "Av. Angélica, 1397 - Higienópolis - São Paulo - SP, 01227-100",
        "nome": "DROGASIL - Higienópolis",
        "latitude": "-23.5449711",
        "longitude": "-46.6570913",
        "cep": "01227-100",
        "horario_funcionamento": "-",
        "telefone": "36667703/38249683",
        "itens_recebidos": [
            "medicamentos"
        ],
        "geohash": "6gyf43c2dgr0"
    },
    {
        "endereco": "Av. Angélica, 2083 - Santa Cecilia - São Paulo - SP, 01227-200",
        "nome": "RAIA - Santa Cecilia",
        "latitude": "-23.5506241",
        "longitude": "-46.6599833",
        "cep": "01227-200",
        "horario_funcionamento": "-",
        "telefone": "32145880",
        "itens_recebidos": [
            "medicamentos"
        ],
        "geohash": "6gyf40xpxt6x"
    },
    {
        "endereco": "Av. Angelina, 770 - Vila Leonor - São Paulo - SP, 02077-000",
        "nome": "UBS Vila Leonor",
        "latitude": "-23.4986846",
        "longitude": "-46.5966979",
        "cep": "02077-000",
        "horario_funcionamento": "-",
        "telefone": "156",
        "itens_recebidos": [
            "medicamentos"
        ],
        "geohash": "6gyf7djq4pxy"
    },
    {
        "endereco": "Av. Ângelo Cristianini, 68 - Cidade Júlia - São Paulo - SP, 04417-090",
        "nome": "PEV - Praça Bacharel Fernando Braga da Rocha",
        "latitude": "-23.6817836",
        "longitude": "-46.6382516",
        "cep": "04417-090",
        "horario_funcionamento": "-",
        "telefone": "156",
        "itens_recebidos": [
            "metal",
            "plástico",
            "papel",
            "vidro"
        ],
        "geohash": "6gyc68z59gx4"
    },
    {
        "endereco": "Av. Antônio Barbosa da Silva Sandoval, 116 - Interlagos - São Paulo - SP, 04783-000",
        "nome": "Ecourbis Cyclea",
        "latitude": "-23.6467351",
        "longitude": "-46.7054379",
        "cep": "04783-000",
        "horario_funcionamento": "-",
        "telefone": "156",
        "itens_recebidos": [
            "metal",
            "plástico",
            "papel",
            "vidro"
        ],
        "geohash": "6gyc3pnpu3j6"
    },
    {
        "endereco": "Av. Antônio Buono, 344 - Vila Guarani (Zona Leste) - São Paulo - SP, 03382-000",
        "nome": "PEV - Vila Guarani - Av. Antônio Buono",
        "latitude": "-23.5803704",
        "longitude": "-46.5334659",
        "cep": "03382-000",
        "horario_funcionamento": "-",
        "telefone": "156",
        "itens_recebidos": [
            "metal",
            "plástico",
            "papel",
            "vidro"
        ],
        "geohash": "6gycv5767skg"
    },
    {
        "endereco": "Av. Antonio Carlos Benjamin dos Santos, 858 - Jardim Edda - São Paulo - SP, 04844-555",
        "nome": "PEV - Escola Estadual Professora Esther Garcia",
        "latitude": "-23.7478250",
        "longitude": "-46.6976127",
        "cep": "04844-555",
        "horario_funcionamento": "-",
        "telefone": "156",
        "itens_recebidos": [
            "metal",
            "plástico",
            "papel",
            "vidro"
        ],
        "geohash": "6gybckgffu81"
    },
    {
        "endereco": "Av. Antônio César Neto, 387 - Jaçanã - São Paulo - SP, 02276-000",
        "nome": "UBS Dr. José de Toledo Piza",
        "latitude": "-23.4607567",
        "longitude": "-46.5831243",
        "cep": "02276-000",
        "horario_funcionamento": "-",
        "telefone": "156",
        "itens_recebidos": [
            "medicamentos"
        ],
        "geohash": "6gyfecp5ntbz"
    },
    {
        "endereco": "Av. Aparecida do Rio Negro, 553 - Jardim Iris - São Paulo - SP, 05144-085",
        "nome": "Patrícia Alcântara",
        "latitude": "-23.5017219",
        "longitude": "-46.7212881",
        "cep": "05144-085",
        "horario_funcionamento": "-",
        "telefone": "99874-8469",
        "itens_recebidos": [
            "esponjas"
        ],
        "geohash": "6gyf2cdse1d8"
    },
    {
        "endereco": "Av. Aratãs, 483 - Indianópolis - São Paulo - SP, 04081-002",
        "nome": "RAIA - Indianópolis",
        "latitude": "-23.609988",
        "longitude": "-46.6619151",
        "cep": "04081-002",
        "horario_funcionamento": "-",
        "telefone": "50934738",
        "itens_recebidos": [
            "medicamentos"
        ],
        "geohash": "6gycdjvvfe4r"
    },
    {
        "endereco": "Av. Aricanduva, 200 - Vila Nova Manchester - São Paulo - SP, 03930-110",
        "nome": "Ecoponto Viaduto Eng. Alberto Badra",
        "latitude": "-23.5415937",
        "longitude": "-46.5381586",
        "cep": "03930-110",
        "horario_funcionamento": "Segunda a sábado, das 6hs às 22hs e aos domingos e feriados das 6hs às 18hs.",
        "telefone": "156",
        "itens_recebidos": [
            "sobras de poda de árvore",
            "móveis velhos",
            "restos de azulejos",
            "cimento",
            "materiais volumosos",
            "madeiras",
            "resíduos da construção civil",
            "tijolo",
            "papel",
            "vidro",
            "entulho",
            "alumínio"
        ],
        "geohash": "6gyfhfruq2cg"
    },
    {
        "endereco": "Av. Aricanduva, 5555 - Jd. Santa Terezinha - São Paulo - SP, 03527-000",
        "nome": "Havaianas Shopping Aricanduva",
        "latitude": "-23.5656301",
        "longitude": "-46.507074",
        "cep": "03527-000",
        "horario_funcionamento": "Segunda a Sábado: 10:00 - 22:00Domingo: 14:00 - 20:04",
        "telefone": "2059-2335",
        "itens_recebidos": [
            "chinelos",
            "sandálias"
        ],
        "geohash": "6gycvwn868hh"
    },
    {
        "endereco": "Av. Aricanduva, 6470 - Chácara Califórnia - São Paulo - SP, 03930-110",
        "nome": "Telhanorte - Aricanduva II",
        "latitude": "-23.5406383",
        "longitude": "-46.543496",
        "cep": "03930-110",
        "horario_funcionamento": "Segunda a Sábado: 08:00 às 21:00Domingo e feriado: 09:00 às 18:00",
        "telefone": "3382-6906",
        "itens_recebidos": [
            "lâmpadas"
        ],
        "geohash": "6gyfhfs1cfvy"
    },
    {
        "endereco": "Av. Arquiteto Vilanova Artigas, 1071 - Conj. Hab. Teotonio Vilela - São Paulo - SP, 03928-240",
        "nome": "UBS Teotonio Vilela",
        "latitude": "-23.6058427",
        "longitude": "-46.5033451",
        "cep": "03928-240",
        "horario_funcionamento": "-",
        "telefone": "156",
        "itens_recebidos": [
            "medicamentos"
        ],
        "geohash": "6gycty9mcxbx"
    },
    {
        "endereco": "Av. Atílio Brugnoli, 489 - Jardim Sao Joao (Jaragua) - São Paulo - SP, 02996-010",
        "nome": "Ecoponto Voith",
        "latitude": "-23.4452587",
        "longitude": "-46.7398967",
        "cep": "02996-010",
        "horario_funcionamento": "Segunda a sábado, das 6hs às 22hs e aos domingos e feriados das 6hs às 18hs.",
        "telefone": "156",
        "itens_recebidos": [
            "sobras de poda de árvore",
            "móveis velhos",
            "restos de azulejos",
            "cimento",
            "materiais volumosos",
            "resíduos da construção civil",
            "tijolo",
            "papel",
            "vidro",
            "entulho",
            "alumínio"
        ],
        "geohash": "6gyf87vj3rnb"
    },
    {
        "endereco": "Av. Atlântica, 1171 - Socorro - São Paulo - SP, 04768-200",
        "nome": "PEV - 102º Distrito Policial - Socorro",
        "latitude": "-23.6763287",
        "longitude": "-46.7120569",
        "cep": "04768-200",
        "horario_funcionamento": "-",
        "telefone": "156",
        "itens_recebidos": [
            "metal",
            "plástico",
            "papel",
            "vidro"
        ],
        "geohash": "6gyc31c76hmv"
    },
    {
        "endereco": "Av. Atlântica, 2450 - Jardim Tres Marias - São Paulo - SP, 04772-000",
        "nome": "PEV - Guarda Civil Metropolitana",
        "latitude": "-23.6879429",
        "longitude": "-46.7151323",
        "cep": "04772-000",
        "horario_funcionamento": "-",
        "telefone": "156",
        "itens_recebidos": [
            "metal",
            "plástico",
            "papel",
            "vidro"
        ],
        "geohash": "6gyc0zxpdx2s"
    },
    {
        "endereco": "Av. Atlântica, 3691 - Interlagos - São Paulo - SP, 04772-004",
        "nome": "Ecourbis Cyclea",
        "latitude": "-23.6988357",
        "longitude": "-46.7149268",
        "cep": "04772-004",
        "horario_funcionamento": "-",
        "telefone": "156",
        "itens_recebidos": [
            "metal",
            "plástico",
            "papel",
            "vidro"
        ],
        "geohash": "6gyc0vz0r2cf"
    },
    {
        "endereco": "Av. Atlântica, 3755 - Jardim Santa Helena - São Paulo - SP, 04772-004",
        "nome": "DROGASIL - Jardim Santa Helena",
        "latitude": "-23.696365",
        "longitude": "-46.7145199",
        "cep": "04772-004",
        "horario_funcionamento": "-",
        "telefone": "56674552/56672200",
        "itens_recebidos": [
            "medicamentos"
        ],
        "geohash": "6gyc0ypw8v3k"
    },
    {
        "endereco": "Av. Augusto Antunes, 1631 - Limoeiro - São Paulo - SP, 08235-630",
        "nome": "UBS Vila Ramos - Dr. Luiz Augusto de Campos",
        "latitude": "-23.5206682",
        "longitude": "-46.4638524",
        "cep": "08235-630",
        "horario_funcionamento": "-",
        "telefone": "156",
        "itens_recebidos": [
            "óleo",
            "medicamentos"
        ],
        "geohash": "6gyfnwnn1v8t"
    },
    {
        "endereco": "Av. Barão do Melgaço, 214 - Real Parque - São Paulo - SP, 05684-030",
        "nome": "RAIA - Real Parque",
        "latitude": "-23.6090434",
        "longitude": "-46.7070301",
        "cep": "05684-030",
        "horario_funcionamento": "-",
        "telefone": "3755-0024",
        "itens_recebidos": [
            "medicamentos"
        ],
        "geohash": "6gyc9nhgr764"
    },
    {
        "endereco": "Av. Barão do Melgaço, 339 - Real Parque - São Paulo - SP, 05684-030",
        "nome": "UBS Real Parque - Dr. Paulo Mangabeira Albernaz Filho",
        "latitude": "-23.6100304",
        "longitude": "-46.7055322",
        "cep": "05684-030",
        "horario_funcionamento": "-",
        "telefone": "156",
        "itens_recebidos": [
            "medicamentos"
        ],
        "geohash": "6gyc9jyjd5r4"
    },
    {
        "endereco": "Av. Batista Maciel, 430 - Pedreira - São Paulo - SP, 04459-110",
        "nome": "UBS Vila Aparecida",
        "latitude": "-23.6909981",
        "longitude": "-46.6701895",
        "cep": "04459-110",
        "horario_funcionamento": "-",
        "telefone": "156",
        "itens_recebidos": [
            "medicamentos"
        ],
        "geohash": "6gyc1zpvcvb7"
    },
    {
        "endereco": "Av. Benedito Andrade, 176 - Vila Pirituba - São Paulo - SP, 02936-000",
        "nome": "Casas Bahia - Pirituba",
        "latitude": "-23.4882868",
        "longitude": "-46.7188009",
        "cep": "02936-000",
        "horario_funcionamento": "-",
        "telefone": "4003-4336",
        "itens_recebidos": [
            "óleo"
        ],
        "geohash": "6gyf2uh6v1cp"
    },
    {
        "endereco": "Av. Benedito Andrade, 358 - Vila Pereira Barreto - São Paulo - SP, 02936-000",
        "nome": "RAIA - Vila Pereira Barreto",
        "latitude": "-23.4877382",
        "longitude": "-46.7171996",
        "cep": "02936-000",
        "horario_funcionamento": "-",
        "telefone": "39713757",
        "itens_recebidos": [
            "medicamentos"
        ],
        "geohash": "6gyf2ujw4270"
    },
    {
        "endereco": "Av. Benedito Andrade, 80 - Vila Pirituba - São Paulo - SP, 02936-000",
        "nome": "DROGASIL - Vila Pirituba",
        "latitude": "-23.4882009",
        "longitude": "-46.7198427",
        "cep": "02936-000",
        "horario_funcionamento": "-",
        "telefone": "39712748/39722749",
        "itens_recebidos": [
            "medicamentos"
        ],
        "geohash": "6gyf2u5ekf02"
    },
    {
        "endereco": "Av. Bento Guelfi, 1100 - Jardim da Laranjeira (Zona Leste) - São Paulo - SP, 08381-001",
        "nome": "AMA/UBS Integrada Jardim Das Laranjeiras",
        "latitude": "-23.6038625",
        "longitude": "-46.4300133",
        "cep": "08381-001",
        "horario_funcionamento": "Segunda a Sábado das 7hs às 19hs",
        "telefone": "156",
        "itens_recebidos": [
            "óleo"
        ],
        "geohash": "6gycxrn9w30g"
    },
    {
        "endereco": "Av. Bento Guelfi, 1802 - Jardim da Laranjeira (Zona Leste) - São Paulo - SP, 08381-073",
        "nome": "PEV - CEU Alto Alegre",
        "latitude": "-23.6091244",
        "longitude": "-46.426785",
        "cep": "08381-073",
        "horario_funcionamento": "-",
        "telefone": "156",
        "itens_recebidos": [
            "metal",
            "plástico",
            "papel",
            "vidro"
        ],
        "geohash": "6gycxw14ckpz"
    },
    {
        "endereco": "Av. Bosque da Saúde - Saúde - São Paulo - SP, 04140-000",
        "nome": "Ecourbis Cyclea",
        "latitude": "-23.610822",
        "longitude": "-46.6374303",
        "cep": "04140-000",
        "horario_funcionamento": "-",
        "telefone": "156",
        "itens_recebidos": [
            "metal",
            "plástico",
            "papel",
            "vidro"
        ],
        "geohash": "6gycdtz8vpg2"
    },
    {
        "endereco": "Av. Bosque da Saúde, 472 - Vila da Saúde - São Paulo - SP, 04142-081",
        "nome": "RAIA - Vila da Saúde",
        "latitude": "-23.6119807",
        "longitude": "-46.6335986",
        "cep": "04142-081",
        "horario_funcionamento": "-",
        "telefone": "55941443",
        "itens_recebidos": [
            "medicamentos"
        ],
        "geohash": "6gycdvd6nru8"
    },
    {
        "endereco": "Av. Bosque da Saúde, 76 - Vila da Saúde - São Paulo - SP, 04142-080",
        "nome": "Casas Bahia - Bosque da Saúde",
        "latitude": "-23.6110616",
        "longitude": "-46.6372791",
        "cep": "04142-080",
        "horario_funcionamento": "-",
        "telefone": "4003-4336",
        "itens_recebidos": [
            "óleo"
        ],
        "geohash": "6gycdtxz8eh5"
    },
    {
        "endereco": "Av. Brasil, 1860 - Jardim America - São Paulo - SP, 14300-001",
        "nome": "C&C - Brasil - Show Room",
        "latitude": "-23.5668528",
        "longitude": "-46.6740612",
        "cep": "14300-001",
        "horario_funcionamento": "Segunda a Sexta: 08:00 às 20:00Sábado: 09:00 às 19:00",
        "telefone": "4001-0100",
        "itens_recebidos": [
            "óleo"
        ],
        "geohash": "6gyccvucps1r"
    },
    {
        "endereco": "Av. Brasil, 1987 - Jardim America - São Paulo - SP, 16604-006",
        "nome": "Telhanorte - Conceito Brasil",
        "latitude": "-23.5665568",
        "longitude": "-46.6756834",
        "cep": "16604-006",
        "horario_funcionamento": "Segunda a Sexta: 09:00 às 20:00Sábados: 09:00 às 18:00",
        "telefone": "2139-9650",
        "itens_recebidos": [
            "lâmpadas"
        ],
        "geohash": "6gyccvgfceru"
    },
    {
        "endereco": "Av. Braz Leme, 1700 - Casa Verde - São Paulo - SP, 02511-000",
        "nome": "DROGASIL - Casa Verde",
        "latitude": "-23.5065355",
        "longitude": "-46.6428911",
        "cep": "02511-000",
        "horario_funcionamento": "-",
        "telefone": "35305818/ 35304464",
        "itens_recebidos": [
            "medicamentos"
        ],
        "geohash": "6gyf68g8tb5t"
    },
    {
        "endereco": "Av. Braz Leme, 2011 - Santana - São Paulo - SP, 02022-010",
        "nome": "Fleury Unidade Braz Leme",
        "latitude": "-23.504095",
        "longitude": "-46.640921",
        "cep": "02022-010",
        "horario_funcionamento": "Segunda a sexta, das 6:30h às 18:30h. Sábados das 06:30h às 12:30h. Domingos das 6:30h às 12:30h.",
        "telefone": "3179-0822",
        "itens_recebidos": [
            "raio-x"
        ],
        "geohash": "6gyf69jnez0s"
    },
    {
        "endereco": "Av. Braz Leme, 2945 - Santana - São Paulo - SP, 02022-011",
        "nome": "UBS Joaquim Antonio Eirado",
        "latitude": "-23.5035882",
        "longitude": "-46.6316478",
        "cep": "02022-011",
        "horario_funcionamento": "-",
        "telefone": "156",
        "itens_recebidos": [
            "medicamentos"
        ],
        "geohash": "6gyf6c7ceve5"
    },
    {
        "endereco": "Av. Brg. Faria Lima, 1733 - Jardim Paulistano - São Paulo - SP, 01452-001",
        "nome": "RAIA - Jardim Paulistano",
        "latitude": "-23.5723835",
        "longitude": "-46.6894177",
        "cep": "01452-001",
        "horario_funcionamento": "-",
        "telefone": "30325989",
        "itens_recebidos": [
            "medicamentos"
        ],
        "geohash": "6gyccscbctnz"
    },
    {
        "endereco": "Av. Brg. Faria Lima, 2127 - Jardim Paulistano - São Paulo - SP, 01451-001",
        "nome": "DROGASIL - Jardim Paulistano",
        "latitude": "-23.575537",
        "longitude": "-46.687634",
        "cep": "01451-001",
        "horario_funcionamento": "-",
        "telefone": "30328789/30322517",
        "itens_recebidos": [
            "medicamentos"
        ],
        "geohash": "6gyccs5ne32g"
    },
    {
        "endereco": "Av. Brg. Faria Lima, 2232 - Jardim Paulistano - São Paulo - SP, 01451-000",
        "nome": "Fast Shop - Shopping Iguatemi",
        "latitude": "-23.5770027",
        "longitude": "-46.6873859",
        "cep": "01451-000",
        "horario_funcionamento": "Segunda a Sábado: 10:00 às 22:00Domingo: 14:00 às 20:00",
        "telefone": "3232-3550",
        "itens_recebidos": [
            "lixo eletrônico",
            "pilhas e baterias"
        ],
        "geohash": "6gyccegq101u"
    },
    {
        "endereco": "Av. Brg. Faria Lima, 2232 - Jardim Paulistano - São Paulo - SP, 01451-000",
        "nome": "Havaianas Iguatemi",
        "latitude": "-23.5770312",
        "longitude": "-46.6881881",
        "cep": "01451-000",
        "horario_funcionamento": "Segunda a Sábado: 10:00 - 22:00Domingo: 14:00 - 20:02",
        "telefone": "3813-7745",
        "itens_recebidos": [
            "chinelos",
            "sandálias"
        ],
        "geohash": "6gyccefty6gd"
    },
    {
        "endereco": "Av. Brigadeiro Luís Antônio, 2013 - Bela Vista - São Paulo - SP, 01317-002",
        "nome": "Extra Hiper - Brigadeiro",
        "latitude": "-23.5664239",
        "longitude": "-46.6469243",
        "cep": "01317-002",
        "horario_funcionamento": "06:00 às 23:00",
        "telefone": "3016-8600",
        "itens_recebidos": [
            "lâmpadas",
            "pilhas e baterias"
        ],
        "geohash": "6gycftbexuhj"
    },
    {
        "endereco": "Av. Brigadeiro Luís Antônio, 2064 - Centro Histórico - São Paulo - SP, 01318-002",
        "nome": "DROGASIL - Centro Histórico",
        "latitude": "-23.5659531",
        "longitude": "-46.6482567",
        "cep": "01318-002",
        "horario_funcionamento": "-",
        "telefone": "32875026/32895308",
        "itens_recebidos": [
            "medicamentos"
        ],
        "geohash": "6gycfmzy2gfw"
    },
    {
        "endereco": "Av. Brigadeiro Luís Antônio, 3126 - Jardim Paulista - São Paulo - SP, 01402-000",
        "nome": "Pão de Açúcar - Jardim Paulista",
        "latitude": "-23.5728178",
        "longitude": "-46.6550702",
        "cep": "01402-000",
        "horario_funcionamento": "06:00 às 22:00",
        "telefone": "3886-0336",
        "itens_recebidos": [
            "plástico",
            "pilhas e baterias",
            "metal",
            "cápsulas de café",
            "óleo",
            "papel",
            "vidro"
        ],
        "geohash": "6gycfkdy6h60"
    },
    {
        "endereco": "Av. Brigadeiro Luís Antônio, 767 - Bela Vista - São Paulo - SP, 01317-001",
        "nome": "DROGASIL - Bela Vista",
        "latitude": "-23.5568871",
        "longitude": "-46.6399198",
        "cep": "01317-001",
        "horario_funcionamento": "-",
        "telefone": "31044373/31042655",
        "itens_recebidos": [
            "medicamentos"
        ],
        "geohash": "6gycfxtg5jgn"
    },
    {
        "endereco": "Av. Cabo Adão Pereira, s/n - Pirituba - São Paulo - SP, 02675-031",
        "nome": "PEV - Praça Yara Yavelber",
        "latitude": "-23.4822028",
        "longitude": "-46.7173298",
        "cep": "02675-031",
        "horario_funcionamento": "-",
        "telefone": "156",
        "itens_recebidos": [
            "metal",
            "plástico",
            "papel",
            "vidro"
        ],
        "geohash": "6gyf2vjqr24h"
    },
    {
        "endereco": "Av. Calim Eid X R. Carlos Maria Stemberg - Vila Ré - São Paulo - SP, 03695-010",
        "nome": "Ecoponto Franquinho",
        "latitude": "-23.5318312",
        "longitude": "-46.4877169",
        "cep": "03695-010",
        "horario_funcionamento": "Segunda a sábado, das 6hs às 22hs e aos domingos e feriados das 6hs às 18hs.",
        "telefone": "156",
        "itens_recebidos": [
            "sobras de poda de árvore",
            "móveis velhos",
            "restos de azulejos",
            "cimento",
            "materiais volumosos",
            "resíduos da construção civil",
            "tijolo",
            "papel",
            "vidro",
            "entulho",
            "alumínio"
        ],
        "geohash": "6gyfnhhtjstz"
    },
    {
        "endereco": "Av. Cândido José Xavier, 7 - Parque Santo Antônio - São Paulo - SP, 05822-020",
        "nome": "DROGASIL - Parque Santo Antônio",
        "latitude": "-23.6613029",
        "longitude": "-46.7543291",
        "cep": "05822-020",
        "horario_funcionamento": "-",
        "telefone": "55101818",
        "itens_recebidos": [
            "medicamentos"
        ],
        "geohash": "6gyc2hddcjmq"
    },
    {
        "endereco": "Av. Cangaíba, 3722 - Cangaiba - São Paulo - SP, 03712-006",
        "nome": "AMA/UBS Integrada Cangaíba - Dr. Carlos Gentile de Mello",
        "latitude": "-23.5056589",
        "longitude": "-46.5208245",
        "cep": "03712-006",
        "horario_funcionamento": "Segunda a Sábado das 7hs às 19hs",
        "telefone": "156",
        "itens_recebidos": [
            "óleo"
        ],
        "geohash": "6gyfm2utd5x4"
    },
    {
        "endereco": "Av. Cardeal Motta, 84 - City América - São Paulo - SP, 05101-210",
        "nome": "Loga Cyclea",
        "latitude": "-23.6467351",
        "longitude": "-46.7271128",
        "cep": "05101-210",
        "horario_funcionamento": "-",
        "telefone": "156",
        "itens_recebidos": [
            "metal",
            "plástico",
            "papel",
            "vidro"
        ],
        "geohash": "6gyc2xnrg356"
    },
    {
        "endereco": "Av. Carlos Barbosa Santos, 895 - Jardim Lucélia - São Paulo - SP, 04852-220",
        "nome": "UBS Jardim Lucelia",
        "latitude": "-23.7627636",
        "longitude": "-46.6723825",
        "cep": "04852-220",
        "horario_funcionamento": "-",
        "telefone": "156",
        "itens_recebidos": [
            "medicamentos"
        ],
        "geohash": "6gybcfn5yev1"
    },
    {
        "endereco": "Av. Carlos Caldeira Filho, 4765 - Cidade Auxiliadora - São Paulo - SP, 05798-300",
        "nome": "Ecourbis Cyclea",
        "latitude": "-23.6467351",
        "longitude": "-46.7689659",
        "cep": "05798-300",
        "horario_funcionamento": "-",
        "telefone": "156",
        "itens_recebidos": [
            "metal",
            "plástico",
            "papel",
            "vidro"
        ],
        "geohash": "6gy9rxpzu156"
    },
    {
        "endereco": "Av. Carlos Caldeira Filho, s/n - Vila Prel - São Paulo - SP, 05798-350",
        "nome": "PEV - Metrô Campo Limpo",
        "latitude": "-23.6460794",
        "longitude": "-46.7533527",
        "cep": "05798-350",
        "horario_funcionamento": "-",
        "telefone": "156",
        "itens_recebidos": [
            "metal",
            "plástico",
            "papel",
            "vidro"
        ],
        "geohash": "6gyc2p75xgm6"
    },
    {
        "endereco": "Av. Carlos de Campos, 1031 - Pari - São Paulo - SP, 03028-001",
        "nome": "Ecoponto Pari",
        "latitude": "-23.5245000",
        "longitude": "-46.6092900",
        "cep": "03028-001",
        "horario_funcionamento": "Segunda a sábado, das 6hs às 22hs e aos domingos e feriados das 6hs às 18hs.",
        "telefone": "156",
        "itens_recebidos": [
            "sobras de poda de árvore",
            "móveis velhos",
            "restos de azulejos",
            "cimento",
            "materiais volumosos",
            "resíduos da construção civil",
            "tijolo",
            "papel",
            "vidro",
            "entulho",
            "alumínio"
        ],
        "geohash": "6gyf5mkpug67"
    },
    {
        "endereco": "Av. Carlos Lacerda, 3093 - Vila Pirajussara - São Paulo - SP, 05789-001",
        "nome": "UBS Jardim Valquiria",
        "latitude": "-23.6577879",
        "longitude": "-46.7752288",
        "cep": "05789-001",
        "horario_funcionamento": "-",
        "telefone": "156",
        "itens_recebidos": [
            "óleo",
            "medicamentos",
            "pilhas e baterias"
        ],
        "geohash": "6gy9rt5r6htq"
    },
    {
        "endereco": "Av. Carlos Liviero, 566 - Vila Liviero - São Paulo - SP, 04186-100",
        "nome": "UBS Luiz Ernesto Mazzoni",
        "latitude": "-23.6448703",
        "longitude": "-46.5930756",
        "cep": "04186-100",
        "horario_funcionamento": "-",
        "telefone": "156",
        "itens_recebidos": [
            "medicamentos",
            "pilhas e baterias"
        ],
        "geohash": "6gyc7xxfwssw"
    },
    {
        "endereco": "Av. Carlos Oberhuber, 659 - Vila Sao Jose (Cidade Dutra) - São Paulo - SP, 04836-130",
        "nome": "UBS Dr. Sérgio Chaddad",
        "latitude": "-23.7433556",
        "longitude": "-46.7110946",
        "cep": "04836-130",
        "horario_funcionamento": "-",
        "telefone": "156",
        "itens_recebidos": [
            "medicamentos"
        ],
        "geohash": "6gybcjdhbteq"
    },
    {
        "endereco": "Av. Casa Grande, 1258 - Vila Cunha Bueno - São Paulo - SP, 03260-000",
        "nome": "UBS Reunidas II",
        "latitude": "-23.6049159",
        "longitude": "-46.5209629",
        "cep": "03260-000",
        "horario_funcionamento": "-",
        "telefone": "156",
        "itens_recebidos": [
            "medicamentos"
        ],
        "geohash": "6gyctqu7quxz"
    },
    {
        "endereco": "Av. Casa Verde, 3031 - Casa Verde - São Paulo - SP, 02519-200",
        "nome": "Andra Materiais Elétricos - Casa Verde",
        "latitude": "-23.5071639",
        "longitude": "-46.6677076",
        "cep": "02519-200",
        "horario_funcionamento": "Segunda a Sexta: 8hs às 18hsSábado: 8hs às 14hs",
        "telefone": "3855-7000",
        "itens_recebidos": [
            "óleo"
        ],
        "geohash": "6gyf609sge51"
    },
    {
        "endereco": "Av. Ceci, 2249 - Planalto Paulista - São Paulo - SP, 04065-004",
        "nome": "UBS Prof. Milton Santos",
        "latitude": "-23.6288157",
        "longitude": "-46.6463052",
        "cep": "04065-004",
        "horario_funcionamento": "-",
        "telefone": "156",
        "itens_recebidos": [
            "medicamentos"
        ],
        "geohash": "6gycdd90nm9b"
    },
    {
        "endereco": "Av. Celso Garcia, 1749 - Belenzinho - São Paulo - SP, 03015-000",
        "nome": "UBS Belenzinho - Marcus Wolosker",
        "latitude": "-23.5371439",
        "longitude": "-46.5955605",
        "cep": "03015-000",
        "horario_funcionamento": "-",
        "telefone": "156",
        "itens_recebidos": [
            "medicamentos"
        ],
        "geohash": "6gyf5ennhwrg"
    },
    {
        "endereco": "Av. Celso Garcia, 3876 - Tatuapé - São Paulo - SP, 03064-000",
        "nome": "DROGASIL - Tatuapé",
        "latitude": "-23.5355791",
        "longitude": "-46.574853",
        "cep": "03064-000",
        "horario_funcionamento": "-",
        "telefone": "20926622/20976910",
        "itens_recebidos": [
            "medicamentos"
        ],
        "geohash": "6gyfh5mpr606"
    },
    {
        "endereco": "Av. Celso Garcia, 4076 - Tatuapé - São Paulo - SP, 03064-000",
        "nome": "DROGASIL - Tatuapé",
        "latitude": "-23.5359515",
        "longitude": "-46.5729477",
        "cep": "03064-000",
        "horario_funcionamento": "-",
        "telefone": "20970245",
        "itens_recebidos": [
            "medicamentos"
        ],
        "geohash": "6gyfh5qt5sth"
    },
    {
        "endereco": "Av. Celso Garcia, 4638 - Tatuapé - São Paulo - SP, 03064-000",
        "nome": "GoodStorage - Unidade Tatuapé",
        "latitude": "-23.534586",
        "longitude": "-46.5677443",
        "cep": "03064-000",
        "horario_funcionamento": "Segunda a Sexta: 07:00 - 19:00",
        "telefone": "3340-4663",
        "itens_recebidos": [],
        "geohash": "6gyfh7dmhgjn"
    },
    {
        "endereco": "Av. Celso Garcia, 5100 - Tatuapé - São Paulo - SP, 03064-000",
        "nome": "RAIA - Tatuapé",
        "latitude": "-23.5330247",
        "longitude": "-46.5628158",
        "cep": "03064-000",
        "horario_funcionamento": "-",
        "telefone": "35301276",
        "itens_recebidos": [
            "medicamentos"
        ],
        "geohash": "6gyfh7vypy0p"
    },
    {
        "endereco": "Av. César Augusto Romaro, 500 - Vila Norma - São Paulo - SP, 08062-000",
        "nome": "UBS Jardim Sao Carlos",
        "latitude": "-23.5089701",
        "longitude": "-46.4727901",
        "cep": "08062-000",
        "horario_funcionamento": "-",
        "telefone": "156",
        "itens_recebidos": [
            "óleo",
            "medicamentos"
        ],
        "geohash": "6gyfq2rd3d24"
    },
    {
        "endereco": "Av. Cidade Jardim, s/n - Itaim Bibi - São Paulo - SP, 01453-000",
        "nome": "PEV - Parque do Povo - Portão Cidade Jardim",
        "latitude": "-23.5858380",
        "longitude": "-46.6889880",
        "cep": "01453-000",
        "horario_funcionamento": "-",
        "telefone": "156",
        "itens_recebidos": [
            "metal",
            "plástico",
            "papel",
            "vidro"
        ],
        "geohash": "6gyccd64e9pk"
    },
    {
        "endereco": "Av. Clara Mantelli, 185 - Jardim dos Lagos - São Paulo - SP, 04771-180",
        "nome": "UBS Veleiros",
        "latitude": "-23.6830534",
        "longitude": "-46.7114796",
        "cep": "04771-180",
        "horario_funcionamento": "-",
        "telefone": "156",
        "itens_recebidos": [
            "medicamentos"
        ],
        "geohash": "6gyc309spwu7"
    },
    {
        "endereco": "Av. Clavásio Alves da Silva, 683 - Vila Siqueira (Zona Norte) - São Paulo - SP, 02722-030",
        "nome": "UBS Adelaide Lopes",
        "latitude": "-23.4975878",
        "longitude": "-46.6774355",
        "cep": "02722-030",
        "horario_funcionamento": "-",
        "telefone": "156",
        "itens_recebidos": [
            "medicamentos"
        ],
        "geohash": "6gyf3f6s8ujk"
    },
    {
        "endereco": "Av. Comendador Santana, 744 - Capão Redondo - São Paulo - SP, 05866-000",
        "nome": "AMA Capão Redondo",
        "latitude": "-23.673286",
        "longitude": "-46.773648",
        "cep": "05866-000",
        "horario_funcionamento": "Segunda a Sábado das 7hs às 19hs",
        "telefone": "5872-9901/5874-2845",
        "itens_recebidos": [
            "raio-x",
            "medicamentos"
        ],
        "geohash": "6gy9rdkmp58h"
    },
    {
        "endereco": "Av. Comendador Sant'Anna, 1011 - Jardim Clarice - São Paulo - SP, 05866-000",
        "nome": "Casas Bahia - Capão Redondo",
        "latitude": "-23.6758462",
        "longitude": "-46.7737539",
        "cep": "05866-000",
        "horario_funcionamento": "-",
        "telefone": "4003-4336",
        "itens_recebidos": [
            "óleo"
        ],
        "geohash": "6gy9r9uqhw3h"
    },
    {
        "endereco": "Av. Comendador Sant'Anna, 34 - Capão Redondo - São Paulo - SP, 05866-000",
        "nome": "DROGASIL - Capão Redondo",
        "latitude": "-23.6671882",
        "longitude": "-46.7730658",
        "cep": "05866-000",
        "horario_funcionamento": "-",
        "telefone": "58725732",
        "itens_recebidos": [
            "medicamentos"
        ],
        "geohash": "6gy9resbss67"
    },
    {
        "endereco": "Av. Comendador Santanna, 542 - Capão Redondo - São Paulo - SP, 05866-000",
        "nome": "AMA Especialidades Capão Redondo",
        "latitude": "-23.671528",
        "longitude": "-46.773442",
        "cep": "05866-000",
        "horario_funcionamento": "Segunda a Sábado das 7hs às 19hs",
        "telefone": "5874-9200/5872-4785",
        "itens_recebidos": [
            "óleo"
        ],
        "geohash": "6gy9rdsx7g3g"
    },
    {
        "endereco": "Av. Conceição, 1874 - Vila Guilherme - São Paulo - SP, 02072-002",
        "nome": "DROGASIL - Vila Guilherme",
        "latitude": "-23.498316",
        "longitude": "-46.596734",
        "cep": "02072-002",
        "horario_funcionamento": "-",
        "telefone": "29013030/29010637",
        "itens_recebidos": [
            "medicamentos"
        ],
        "geohash": "6gyf7dm23kkv"
    },
    {
        "endereco": "Av. Cônego José Salomon, 861 - Jardim Felicidade (Zona Norte) - São Paulo - SP, 02675-031",
        "nome": "Ecoponto Cônego José Salomon",
        "latitude": "-23.4922515",
        "longitude": "-46.7219478",
        "cep": "02675-031",
        "horario_funcionamento": "Segunda a sábado, das 6hs às 22hs e aos domingos e feriados das 6hs às 18hs.",
        "telefone": "156",
        "itens_recebidos": [
            "sobras de poda de árvore",
            "móveis velhos",
            "restos de azulejos",
            "cimento",
            "materiais volumosos",
            "madeiras",
            "resíduos da construção civil",
            "tijolo",
            "papel",
            "vidro",
            "entulho",
            "alumínio"
        ],
        "geohash": "6gyf2g65ewyt"
    },
    {
        "endereco": "Av. Conselheiro Carrão, 2260 - Vila Carrao - São Paulo - SP, 03402-002",
        "nome": "Casas Bahia - Vila Carrão",
        "latitude": "-23.5480596",
        "longitude": "-46.5396959",
        "cep": "03402-002",
        "horario_funcionamento": "-",
        "telefone": "4003-4336",
        "itens_recebidos": [
            "óleo"
        ],
        "geohash": "6gyfhcnyd7x8"
    },
    {
        "endereco": "Av. Conselheiro Carrão, 2424 - Vila Carrao - São Paulo - SP, 03402-002",
        "nome": "DROGASIL - Vila Carrao",
        "latitude": "-23.5486877",
        "longitude": "-46.5382281",
        "cep": "03402-002",
        "horario_funcionamento": "-",
        "telefone": "22271370",
        "itens_recebidos": [
            "medicamentos"
        ],
        "geohash": "6gyfhcpfuwmy"
    },
    {
        "endereco": "Av. Conselheiro Carrão, 3445 - Vila Carrao - São Paulo - SP, 03403-003",
        "nome": "DROGASIL - Vila Carrao",
        "latitude": "-23.5520613",
        "longitude": "-46.5290880",
        "cep": "03403-003",
        "horario_funcionamento": "-",
        "telefone": "20930444",
        "itens_recebidos": [
            "medicamentos"
        ],
        "geohash": "6gyfj0qx39t3"
    },
    {
        "endereco": "Av. Corifeu de Azevedo Marques, 3067 - Vila Lageado - São Paulo - SP, 05339-000",
        "nome": "DROGASIL - Vila Lageado",
        "latitude": "-23.5698592",
        "longitude": "-46.7413136",
        "cep": "05339-000",
        "horario_funcionamento": "-",
        "telefone": "37359700/37695811",
        "itens_recebidos": [
            "medicamentos"
        ],
        "geohash": "6gycbmhp87y3"
    },
    {
        "endereco": "Av. Corifeu de Azevedo Marques, 4160 - Vila Lageado - São Paulo - SP, 05340-002",
        "nome": "Extra Hiper - Jaguaré",
        "latitude": "-23.5573196",
        "longitude": "-46.7473144",
        "cep": "05340-002",
        "horario_funcionamento": "06:00 às 22:00",
        "telefone": "3769-2144",
        "itens_recebidos": [
            "lâmpadas",
            "lixo eletrônico",
            "pilhas e baterias"
        ],
        "geohash": "6gycbpx8st7f"
    },
    {
        "endereco": "Av. Corifeu de Azevedo Marques, 950 - Butantã - São Paulo - SP, 05582-000",
        "nome": "RAIA - Butantã",
        "latitude": "-23.5723296",
        "longitude": "-46.7234111",
        "cep": "05582-000",
        "horario_funcionamento": "-",
        "telefone": "37212053",
        "itens_recebidos": [
            "medicamentos"
        ],
        "geohash": "6gycbuc11x78"
    },
    {
        "endereco": "Av. Cruzeiro do Sul, 1100 - Canindé - São Paulo - SP, 03033-020",
        "nome": "C&A - Shopping D",
        "latitude": "-23.5217642",
        "longitude": "-46.6240873",
        "cep": "03033-020",
        "horario_funcionamento": "Segunda a Sábado: 10:00 às 22:00Domingo: 12:00 às 20:00",
        "telefone": "2165-0050",
        "itens_recebidos": [
            "tecidos"
        ],
        "geohash": "6gyf5jcru12e"
    },
    {
        "endereco": "Av. Cruzeiro do Sul, 2630 - Santana - São Paulo - SP, 02030-100",
        "nome": "PEV - Parque da Juventude",
        "latitude": "-23.5086574",
        "longitude": "-46.6239311",
        "cep": "02030-100",
        "horario_funcionamento": "-",
        "telefone": "156",
        "itens_recebidos": [
            "metal",
            "plástico",
            "papel",
            "vidro"
        ],
        "geohash": "6gyf703kpsth"
    },
    {
        "endereco": "Av. Cupecê, 2756 - Cidade Ademar - São Paulo - SP, 04366-000",
        "nome": "DROGASIL - Cidade Ademar",
        "latitude": "-23.6653804",
        "longitude": "-46.6585209",
        "cep": "04366-000",
        "horario_funcionamento": "-",
        "telefone": "31410430/32624813",
        "itens_recebidos": [
            "medicamentos"
        ],
        "geohash": "6gyc67b71tm5"
    },
    {
        "endereco": "Av. Cupecê, 3036 - Jabaquara - São Paulo - SP, 04366-000",
        "nome": "Casas Bahia - Cupecê",
        "latitude": "-23.6665035",
        "longitude": "-46.6560696",
        "cep": "04366-000",
        "horario_funcionamento": "-",
        "telefone": "4003-4336",
        "itens_recebidos": [
            "óleo"
        ],
        "geohash": "6gyc67dhdgcp"
    },
    {
        "endereco": "Av. Cupecê, 5185 - Jardim Miriam - São Paulo - SP, 04365-001",
        "nome": "UBS Jardim Miriam II",
        "latitude": "-23.6788478",
        "longitude": "-46.6398751",
        "cep": "04365-001",
        "horario_funcionamento": "-",
        "telefone": "156",
        "itens_recebidos": [
            "medicamentos"
        ],
        "geohash": "6gyc69musnu6"
    },
    {
        "endereco": "Av. D. Pedro I, 4900 - Cambuci - São Paulo - SP, 01552-000",
        "nome": "Ecoponto Cambuci",
        "latitude": "-23.5648680",
        "longitude": "-46.6114200",
        "cep": "01552-000",
        "horario_funcionamento": "Segunda a sábado, das 6hs às 22hs e aos domingos e feriados das 6hs às 18hs.",
        "telefone": "156",
        "itens_recebidos": [
            "sobras de poda de árvore",
            "móveis velhos",
            "restos de azulejos",
            "cimento",
            "materiais volumosos",
            "madeiras",
            "resíduos da construção civil",
            "tijolo",
            "papel",
            "vidro",
            "entulho",
            "alumínio"
        ],
        "geohash": "6gycgq4sennn"
    },
    {
        "endereco": "Av. da Aclimação, 707 - Aclimação - São Paulo - SP, 01531-001",
        "nome": "DROGASIL - Aclimação",
        "latitude": "-23.5724403",
        "longitude": "-46.6327316",
        "cep": "01531-001",
        "horario_funcionamento": "-",
        "telefone": "32083318",
        "itens_recebidos": [
            "medicamentos"
        ],
        "geohash": "6gycfug0ddeh"
    },
    {
        "endereco": "Av. da Barreira Grande, 2903 - Vila Bancária - São Paulo - SP, 03916-000",
        "nome": "Suguiura Materiais para Construção",
        "latitude": "-23.589265",
        "longitude": "-46.509132",
        "cep": "03916-000",
        "horario_funcionamento": "Segunda a sábado. das 8h às 18h",
        "telefone": "3562-5762",
        "itens_recebidos": [
            "lâmpadas",
            "pilhas e baterias"
        ],
        "geohash": "6gycv9tnddm9"
    },
    {
        "endereco": "Av. Dalva de Oliveira, 82 - Jardim Rosinha - São Paulo - SP, 05274-001",
        "nome": "UBS Jardim Rosinha",
        "latitude": "-23.4388077",
        "longitude": "-46.8019237",
        "cep": "05274-001",
        "horario_funcionamento": "-",
        "telefone": "156",
        "itens_recebidos": [
            "óleo",
            "medicamentos"
        ],
        "geohash": "6gydwvpgh1s3"
    },
    {
        "endereco": "Av. Dama Entre Verdes, 26 - Jardim dos Ipes - São Paulo - SP, 08030-610",
        "nome": "Ecoponto Mãe Preta",
        "latitude": "-23.5082192",
        "longitude": "-46.4167861",
        "cep": "08030-610",
        "horario_funcionamento": "Segunda a sábado, das 6hs às 22hs e aos domingos e feriados das 6hs às 18hs.",
        "telefone": "156",
        "itens_recebidos": [
            "sobras de poda de árvore",
            "móveis velhos",
            "restos de azulejos",
            "cimento",
            "materiais volumosos",
            "madeiras",
            "resíduos da construção civil",
            "tijolo",
            "papel",
            "vidro",
            "entulho",
            "alumínio"
        ],
        "geohash": "6gyfrb2qdqrd"
    },
    {
        "endereco": "Av. das Cerejeiras, 1193 - Jardim Japao - São Paulo - SP, 02124-001",
        "nome": "DROGASIL - Jardim Japao",
        "latitude": "-23.5067169",
        "longitude": "-46.5778042",
        "cep": "02124-001",
        "horario_funcionamento": "-",
        "telefone": "22091097",
        "itens_recebidos": [
            "medicamentos"
        ],
        "geohash": "6gyfk0ep6qrg"
    },
    {
        "endereco": "Av. das Garoupas, 147 - Balneário São Francisco - São Paulo - SP, 04473-100",
        "nome": "DROGASIL - Balneário São Francisco",
        "latitude": "-23.6998080",
        "longitude": "-46.6483260",
        "cep": "04473-100",
        "horario_funcionamento": "-",
        "telefone": "-",
        "itens_recebidos": [
            "medicamentos"
        ],
        "geohash": "6gyc4mxdx5x4"
    },
    {
        "endereco": "Av. das Nações Unidas, 16741 - Retiro Morumbi - São Paulo - SP, 05657-900",
        "nome": "Extra Hiper - Morumbi (Drogaria)",
        "latitude": "-23.6272501",
        "longitude": "-46.7167601",
        "cep": "05657-900",
        "horario_funcionamento": "Segunda a Sábado: 07:00 às 23:00Domingo: 08:00 às 21:00",
        "telefone": "3758-2481",
        "itens_recebidos": [
            "medicamentos"
        ],
        "geohash": "6gyc8fvck96g"
    },
    {
        "endereco": "Av. das Nações Unidas, 22540 - Santo Amaro - São Paulo - SP, 04295-030",
        "nome": "Casas Bahia - Shopping SP Market",
        "latitude": "-23.6781684",
        "longitude": "-46.6990251",
        "cep": "04295-030",
        "horario_funcionamento": "-",
        "telefone": "4003-4336",
        "itens_recebidos": [
            "lixo eletrônico",
            "pilhas e baterias"
        ],
        "geohash": "6gyc33db9v7p"
    },
    {
        "endereco": "Av. das Nações Unidas, 22540 - Jurubatuba - São Paulo - SP, 04696-005",
        "nome": "DROGASIL - Jurubatuba",
        "latitude": "-23.6785695",
        "longitude": "-46.6985962",
        "cep": "04696-005",
        "horario_funcionamento": "-",
        "telefone": "55231993/55234387",
        "itens_recebidos": [
            "medicamentos"
        ],
        "geohash": "6gyc337n7fdz"
    },
    {
        "endereco": "Av. das Nações Unidas, 23343 - Vila Almeida - São Paulo - SP, 04795-100",
        "nome": "C&C - Interlagos",
        "latitude": "-23.6829913",
        "longitude": "-46.6937531",
        "cep": "04795-100",
        "horario_funcionamento": "Segunda a Sábado: 08:00 às 22:00Domingos e Feriados: 09:00 às 20:00",
        "telefone": "4001-0100",
        "itens_recebidos": [
            "óleo"
        ],
        "geohash": "6gyc32wssdqn"
    },
    {
        "endereco": "Av. das Nações Unidas, 4777 - Vila Olímpia - São Paulo - SP, 02270-000",
        "nome": "Fast Shop - Shopping VillaLobos",
        "latitude": "-23.5919187",
        "longitude": "-46.6917144",
        "cep": "02270-000",
        "horario_funcionamento": "Segunda a Sábado: 10:00 às 22:00Domingo: 14:00 às 20:00",
        "telefone": "3232-2800",
        "itens_recebidos": [
            "lixo eletrônico",
            "pilhas e baterias"
        ],
        "geohash": "6gycc90ph5w7"
    },
    {
        "endereco": "Av. Dep. Cantídio Sampaio, 936 - Vila Souza - São Paulo - SP, 02860-150",
        "nome": "DROGASIL - Vila Souza",
        "latitude": "-23.4692793",
        "longitude": "-46.6768265",
        "cep": "02860-150",
        "horario_funcionamento": "-",
        "telefone": "38511776",
        "itens_recebidos": [
            "medicamentos"
        ],
        "geohash": "6gyf3zdcx15x"
    },
    {
        "endereco": "Av. Dep. Emílio Carlos, 3641 - Vila dos Andrades - São Paulo - SP, 02721-200",
        "nome": "PEV - CCJ - Centro Cultural da Juventude Ruth Cardoso",
        "latitude": "-23.4759198",
        "longitude": "-46.670414",
        "cep": "02721-200",
        "horario_funcionamento": "-",
        "telefone": "156",
        "itens_recebidos": [
            "metal",
            "plástico",
            "papel",
            "vidro"
        ],
        "geohash": "6gyf3yrdue35"
    },
    {
        "endereco": "Av. Diógenes Ribeiro de Lima, 2066 - Alto de Pinheiros - São Paulo - SP, 05458-001",
        "nome": "DROGASIL - Alto de Pinheiros",
        "latitude": "-23.5412918",
        "longitude": "-46.7165098",
        "cep": "05458-001",
        "horario_funcionamento": "-",
        "telefone": "30217066/30217065",
        "itens_recebidos": [
            "medicamentos"
        ],
        "geohash": "6gyf0fqn43js"
    },
    {
        "endereco": "Av. Diógenes Ribeiro de Lima, 2412 - Alto da Lapa - São Paulo - SP, 05458-001",
        "nome": "Casa Toni - Alto da Lapa",
        "latitude": "-23.5389286",
        "longitude": "-46.7188704",
        "cep": "05458-001",
        "horario_funcionamento": "Segunda a Sexta: 08:00 às 18:00Sábado: 08:00 às 13:00",
        "telefone": "3900-2150",
        "itens_recebidos": [
            "óleo"
        ],
        "geohash": "6gyf0fu7g3tm"
    },
    {
        "endereco": "Av. do Anastácio, 2421 - City América - São Paulo - SP, 05119-000",
        "nome": "AMA/UBS Integrada Parque Maria Domitila",
        "latitude": "-23.4884042",
        "longitude": "-46.7380714",
        "cep": "05119-000",
        "horario_funcionamento": "Segunda a Sábado das 7hs às 19hs",
        "telefone": "156",
        "itens_recebidos": [
            "óleo"
        ],
        "geohash": "6gyf2kn6hh05"
    },
    {
        "endereco": "Av. do Anastácio, 655 - Parque Sao Domingos - São Paulo - SP, 05119-000",
        "nome": "RAIA - Parque Sao Domingos",
        "latitude": "-23.5025236",
        "longitude": "-46.7336268",
        "cep": "05119-000",
        "horario_funcionamento": "-",
        "telefone": "36454857",
        "itens_recebidos": [
            "medicamentos"
        ],
        "geohash": "6gyf293xgs41"
    },
    {
        "endereco": "Av. do Arvoreiro X R. Palmeira do Mar - Parque das Arvores - São Paulo - SP, 04824-010",
        "nome": "PEV - Parque das Arvores",
        "latitude": "-23.7326700",
        "longitude": "-46.6946791",
        "cep": "04824-010",
        "horario_funcionamento": "-",
        "telefone": "156",
        "itens_recebidos": [
            "metal",
            "plástico",
            "papel",
            "vidro"
        ],
        "geohash": "6gybcrtgpjet"
    },
    {
        "endereco": "Av. do Café, 538 - Vila Guarani (Zona Sul) - São Paulo - SP, 04311-001",
        "nome": "DROGASIL - Vila Guarani (Zona Sul)",
        "latitude": "-23.6329883",
        "longitude": "-46.6378508",
        "cep": "04311-001",
        "horario_funcionamento": "-",
        "telefone": "34734268",
        "itens_recebidos": [
            "medicamentos"
        ],
        "geohash": "6gycd9xrg79v"
    },
    {
        "endereco": "Av. do Cursino - Jardim da Saúde - São Paulo - SP, 04133-100",
        "nome": "Ecourbis Cyclea",
        "latitude": "-23.6185861",
        "longitude": "-46.6186265",
        "cep": "04133-100",
        "horario_funcionamento": "-",
        "telefone": "156",
        "itens_recebidos": [
            "metal",
            "plástico",
            "papel",
            "vidro"
        ],
        "geohash": "6gycehm7g22w"
    },
    {
        "endereco": "Av. do Cursino, 1537 - Vila da Saúde - São Paulo - SP, 04133-100",
        "nome": "DROGASIL - Vila da Saúde",
        "latitude": "-23.6160901",
        "longitude": "-46.6174302",
        "cep": "04133-100",
        "horario_funcionamento": "-",
        "telefone": "50585099/50585769",
        "itens_recebidos": [
            "medicamentos"
        ],
        "geohash": "6gycehy4r1sx"
    },
    {
        "endereco": "Av. do Cursino, 2268 - Vila da Saúde - São Paulo - SP, 04132-002",
        "nome": "RAIA - Vila da Saúde",
        "latitude": "-23.621975",
        "longitude": "-46.6208525",
        "cep": "04132-002",
        "horario_funcionamento": "-",
        "telefone": "50587006",
        "itens_recebidos": [
            "medicamentos"
        ],
        "geohash": "6gyce5g8p2sy"
    },
    {
        "endereco": "Av. do Estado - Bom Retiro - São Paulo - SP, 01107-000",
        "nome": "Coopere Centro",
        "latitude": "-23.521658",
        "longitude": "-46.6362661",
        "cep": "01107-000",
        "horario_funcionamento": "Segunda a Sexta: 07:00 às 16:00",
        "telefone": "3313-2755",
        "itens_recebidos": [
            "plástico",
            "lixo eletrônico",
            "metal",
            "óleo",
            "papel",
            "vidro"
        ],
        "geohash": "6gyf4y082jps"
    },
    {
        "endereco": "Av. do Estado, 5460 - Cambuci - São Paulo - SP, 01516-000",
        "nome": "GoodStorage - Unidade Estado",
        "latitude": "-23.5583842",
        "longitude": "-46.6175621",
        "cep": "01516-000",
        "horario_funcionamento": "Segunda a Sexta: 07:00 - 19:00",
        "telefone": "14095-6557",
        "itens_recebidos": [],
        "geohash": "6gycgpq4knfk"
    },
    {
        "endereco": "Av. do Imperador, 5000 - São Miguel Paulista - São Paulo - SP, 08050-000",
        "nome": "Compre Bem - Imperador",
        "latitude": "-23.5148303",
        "longitude": "-46.4548524",
        "cep": "08050-000",
        "horario_funcionamento": "Segunda a Sábado: 07:00 às 22:00Domingos e Feriados: 07:00 às 20:00",
        "telefone": "2055-1440",
        "itens_recebidos": [
            "pilhas e baterias"
        ],
        "geohash": "6gyfnzk85mzm"
    },
    {
        "endereco": "Av. do Oratório, 172 - Vila Prudente - São Paulo - SP, 03220-000",
        "nome": "Subprefeitura Vila Prudente",
        "latitude": "-23.582861",
        "longitude": "-46.561267",
        "cep": "03220-000",
        "horario_funcionamento": "De Segunda a Sexta das 8h às 17h.",
        "telefone": "3397-0863",
        "itens_recebidos": [
            "lixo eletrônico"
        ],
        "geohash": "6gycu6z5gu4f"
    },
    {
        "endereco": "Av. do Oratório, 1838 - Vila Independencia - São Paulo - SP, 03220-000",
        "nome": "DROGASIL - Vila Independencia",
        "latitude": "-23.591014",
        "longitude": "-46.5513605",
        "cep": "03220-000",
        "horario_funcionamento": "-",
        "telefone": "22162254",
        "itens_recebidos": [
            "medicamentos"
        ],
        "geohash": "6gycu9qk6sjz"
    },
    {
        "endereco": "Av. do Oratório, 225 - Vila Prudente - São Paulo - SP, 03221-000",
        "nome": "PEV - Vila Prudente - Av. do Oratório",
        "latitude": "-23.5825576",
        "longitude": "-46.5609513",
        "cep": "03221-000",
        "horario_funcionamento": "-",
        "telefone": "156",
        "itens_recebidos": [
            "metal",
            "plástico",
            "papel",
            "vidro"
        ],
        "geohash": "6gycu6zmehwk"
    },
    {
        "endereco": "Av. do Oratório, 2265 - Vila Paulo Silas - São Paulo - SP, 03221-100",
        "nome": "Casas Bahia - Parque São Lucas",
        "latitude": "-23.592105",
        "longitude": "-46.5472210",
        "cep": "03221-100",
        "horario_funcionamento": "-",
        "telefone": "4003-4336",
        "itens_recebidos": [
            "óleo"
        ],
        "geohash": "6gycuc1q50u7"
    },
    {
        "endereco": "Av. do Oratório, 2606 - Parque São Lucas - São Paulo - SP, 03220-100",
        "nome": "Coop Drogaria Oratório",
        "latitude": "-23.593297",
        "longitude": "-46.544689",
        "cep": "03220-100",
        "horario_funcionamento": "Segunda a sábado. das 8h às 21h30. Domingos. das 8h30 às 18h",
        "telefone": "2116-3608",
        "itens_recebidos": [
            "medicamentos",
            "tecidos"
        ],
        "geohash": "6gycubgpn4sm"
    },
    {
        "endereco": "Av. do Oratório, 4453 - Jardim Guairaca - São Paulo - SP, 03221-300",
        "nome": "DROGASIL - Jardim Guairaca",
        "latitude": "-23.6015663",
        "longitude": "-46.5310691",
        "cep": "03221-300",
        "horario_funcionamento": "-",
        "telefone": "27033554",
        "itens_recebidos": [
            "medicamentos"
        ],
        "geohash": "6gyctpmngt0j"
    },
    {
        "endereco": "Av. do Oratório, 5683 - Jardim Angela - São Paulo - SP, 03221-300",
        "nome": "DROGASIL - Jardim Angela",
        "latitude": "-23.6057667",
        "longitude": "-46.5220724",
        "cep": "03221-300",
        "horario_funcionamento": "-",
        "telefone": "20361763/20361404",
        "itens_recebidos": [
            "medicamentos"
        ],
        "geohash": "6gyctqewmnhs"
    },
    {
        "endereco": "Av. do Oratório, 6557 - Jardim Angela - São Paulo - SP, 03221-300",
        "nome": "UBS Iguaçu",
        "latitude": "-23.6130140",
        "longitude": "-46.5229646",
        "cep": "03221-300",
        "horario_funcionamento": "-",
        "telefone": "156",
        "itens_recebidos": [
            "medicamentos"
        ],
        "geohash": "6gyctm7h0r5k"
    },
    {
        "endereco": "Av. do Poeta, 931 - Jardim Julieta - São Paulo - SP, 02162-100",
        "nome": "Ecoponto Vila Sabrina",
        "latitude": "-23.4862859",
        "longitude": "-46.5656245",
        "cep": "02162-100",
        "horario_funcionamento": "Segunda a sábado, das 6hs às 22hs e aos domingos e feriados das 6hs às 18hs.",
        "telefone": "156",
        "itens_recebidos": [
            "sobras de poda de árvore",
            "móveis velhos",
            "restos de azulejos",
            "cimento",
            "materiais volumosos",
            "resíduos da construção civil",
            "tijolo",
            "papel",
            "vidro",
            "entulho",
            "alumínio"
        ],
        "geohash": "6gyfkk7yqqcz"
    },
    {
        "endereco": "Av. do Rio Pequeno, 1158 - Rio Pequeno - São Paulo - SP, 05379-000",
        "nome": "Casas Bahia - Rio Pequeno",
        "latitude": "-23.5680579",
        "longitude": "-46.7561995",
        "cep": "05379-000",
        "horario_funcionamento": "-",
        "telefone": "4003-4336",
        "itens_recebidos": [
            "óleo"
        ],
        "geohash": "6gycbj94jedd"
    },
    {
        "endereco": "Av. Dom Pedro I, 594 - Vila Monumento - São Paulo - SP, 01552-001",
        "nome": "UBS Oswaldo Marasca Junior - Vl Monumento",
        "latitude": "-23.570538",
        "longitude": "-46.6115553",
        "cep": "01552-001",
        "horario_funcionamento": "-",
        "telefone": "156",
        "itens_recebidos": [
            "medicamentos"
        ],
        "geohash": "6gycgm4e8j32"
    },
    {
        "endereco": "Av. Dom Rodrigo Sanches, 700 - Pq Engenho - São Paulo - SP, 05892-360",
        "nome": "UBS Parque Engenho II",
        "latitude": "-23.66116",
        "longitude": "-46.7860299",
        "cep": "05892-360",
        "horario_funcionamento": "-",
        "telefone": "156",
        "itens_recebidos": [
            "óleo",
            "medicamentos",
            "pilhas e baterias"
        ],
        "geohash": "6gy9rke7y2pd"
    },
    {
        "endereco": "Av. Dona Belmira Marin, 1036 - Grajaú - São Paulo - SP, 04846-000",
        "nome": "RAIA - Grajaú",
        "latitude": "-23.739482",
        "longitude": "-46.6918000",
        "cep": "04846-000",
        "horario_funcionamento": "-",
        "telefone": "59395821",
        "itens_recebidos": [
            "medicamentos"
        ],
        "geohash": "6gybcw256py3"
    },
    {
        "endereco": "Av. Dona Belmira Marin, 646 - Parque Brasil - São Paulo - SP, 04822-290",
        "nome": "Casas Bahia - Grajaú",
        "latitude": "-23.7367981",
        "longitude": "-46.694243",
        "cep": "04822-290",
        "horario_funcionamento": "-",
        "telefone": "4003-4336",
        "itens_recebidos": [
            "óleo"
        ],
        "geohash": "6gybcqy71k0g"
    },
    {
        "endereco": "Av. Dona Belmira Marin, 891 - Parque Brasil - São Paulo - SP, 04846-010",
        "nome": "Casas Bahia - Grajaú",
        "latitude": "-23.7380099",
        "longitude": "-46.692097",
        "cep": "04846-010",
        "horario_funcionamento": "-",
        "telefone": "4003-4336",
        "itens_recebidos": [
            "óleo"
        ],
        "geohash": "6gybcqxu561p"
    },
    {
        "endereco": "Av. Dona Helena Pereira de Moraes, 200 - Parque do Morumbi - São Paulo - SP, 04717-910",
        "nome": "PEV - Parque Burle Marx",
        "latitude": "-23.6347549",
        "longitude": "-46.7245993",
        "cep": "04717-910",
        "horario_funcionamento": "-",
        "telefone": "156",
        "itens_recebidos": [
            "plástico",
            "lixo eletrônico",
            "pilhas e baterias",
            "metal",
            "papel",
            "vidro"
        ],
        "geohash": "6gyc8c2jtfme"
    },
    {
        "endereco": "Av. dos Expedicionários, 777 - Loja 08 - Shop. Franco Da Rocha - Centro - São Paulo - SP, 07803-010",
        "nome": "Peculiar Madame Juju",
        "latitude": "-23.329221",
        "longitude": "-46.727981",
        "cep": "07803-010",
        "horario_funcionamento": "De Segunda a Sábado das 9h às 22h. Domingos das 11h às 21h.",
        "telefone": "4443-5511",
        "itens_recebidos": [
            "lixo eletrônico"
        ],
        "geohash": "6gyg29j9rn5b"
    },
    {
        "endereco": "Av. dos Funcionários Públicos, 379 - Vila do Sol - São Paulo - SP, 04962-000",
        "nome": "UBS Vera Cruz - Dr Fernando Proenca de Gouvea",
        "latitude": "-23.7348821",
        "longitude": "-46.7812341",
        "cep": "04962-000",
        "horario_funcionamento": "-",
        "telefone": "156",
        "itens_recebidos": [
            "óleo",
            "medicamentos",
            "pilhas e baterias"
        ],
        "geohash": "6gy8zrnyq1r9"
    },
    {
        "endereco": "Av. dos Lagos, 764 - Jardim dos Lagos - São Paulo - SP, 04774-000",
        "nome": "PEV - Jardim dos Lagos - Av. dos Lagos",
        "latitude": "-23.6854444",
        "longitude": "-46.7104030",
        "cep": "04774-000",
        "horario_funcionamento": "-",
        "telefone": "156",
        "itens_recebidos": [
            "metal",
            "plástico",
            "papel",
            "vidro"
        ],
        "geohash": "6gyc304w29ph"
    },
    {
        "endereco": "Av. dos Latinos, 205 - Jardim Santa Teresinha - São Paulo - SP, 03572-000",
        "nome": "UBS Jardim Santa Terezinha",
        "latitude": "-23.5722041",
        "longitude": "-46.5036657",
        "cep": "03572-000",
        "horario_funcionamento": "-",
        "telefone": "156",
        "itens_recebidos": [
            "óleo",
            "medicamentos"
        ],
        "geohash": "6gycvuc1fn9t"
    },
    {
        "endereco": "Av. dos Metalúrgicos, 1262 - Cidade Tiradentes - São Paulo - SP, 08471-000",
        "nome": "PEV - CEU Água Azul",
        "latitude": "-23.5941000",
        "longitude": "-46.4063500",
        "cep": "08471-000",
        "horario_funcionamento": "-",
        "telefone": "156",
        "itens_recebidos": [
            "metal",
            "plástico",
            "papel",
            "vidro"
        ],
        "geohash": "6gyczbzfmsvr"
    },
    {
        "endereco": "Av. dos Metalúrgicos, 2100 - Cidade Tiradentes - São Paulo - SP, 08471-970",
        "nome": "Hospital Cidade Tiradentes Santa Marcelina",
        "latitude": "-23.599462",
        "longitude": "-46.401730",
        "cep": "08471-970",
        "horario_funcionamento": "De Segunda a Sexta das 7h:00 às 20h.",
        "telefone": "2559-6200",
        "itens_recebidos": [
            "lixo eletrônico"
        ],
        "geohash": "6gz18pg71m6m"
    },
    {
        "endereco": "Av. dos Metalúrgicos, 2255 - Cidade Tiradentes - São Paulo - SP, 08471-002",
        "nome": "PEV - Clube Escola André Vital Ribeiro Soares",
        "latitude": "-23.5987000",
        "longitude": "-46.4022900",
        "cep": "08471-002",
        "horario_funcionamento": "-",
        "telefone": "156",
        "itens_recebidos": [
            "metal",
            "plástico",
            "papel",
            "vidro"
        ],
        "geohash": "6gz18pfzs72z"
    },
    {
        "endereco": "Av. dos Remédios, 900 - Vila Santa Edwiges - São Paulo - SP, 05107-002",
        "nome": "DROGASIL - Vila Santa Edwiges",
        "latitude": "-23.5168639",
        "longitude": "-46.7534184",
        "cep": "05107-002",
        "horario_funcionamento": "-",
        "telefone": "36216064",
        "itens_recebidos": [
            "medicamentos"
        ],
        "geohash": "6gyf0nghq6u6"
    },
    {
        "endereco": "Av. dos Tajurás, 245 - Morumbi - São Paulo - SP, 05670-000",
        "nome": "DROGASIL - Morumbi",
        "latitude": "-23.5861882",
        "longitude": "-46.6953187",
        "cep": "05670-000",
        "horario_funcionamento": "-",
        "telefone": "30377479/30377482",
        "itens_recebidos": [
            "medicamentos"
        ],
        "geohash": "6gycc6m82pyg"
    },
    {
        "endereco": "Av. Doutor Arnaldo, 925 - Sumaré - São Paulo - SP, 01246-000",
        "nome": "Centro de Saúde Escola Geraldo de Paula Souza",
        "latitude": "-23.553212",
        "longitude": "-46.673465",
        "cep": "01246-000",
        "horario_funcionamento": "Segundas. terças. quintas e sextas. das 7h às 19h. Quartas. das 7h às 11h30 - 16h às 19h",
        "telefone": "3061-7721",
        "itens_recebidos": [
            "medicamentos"
        ],
        "geohash": "6gyf1bm2t7n1"
    },
    {
        "endereco": "Av. Doutor Bernardino Brito Fonseca de Carvalho, 2203 - Vila Matilde - São Paulo - SP, 03557-080",
        "nome": "Suguiura Materiais para Construção",
        "latitude": "-23.545158",
        "longitude": "-46.505931",
        "cep": "03557-080",
        "horario_funcionamento": "Segunda a sábado. das 8h às18h",
        "telefone": "2748-1400",
        "itens_recebidos": [
            "lâmpadas",
            "pilhas e baterias"
        ],
        "geohash": "6gyfj9xrt22m"
    },
    {
        "endereco": "Av. Doutor Gastão Vidigal, 2345 - Vila Leopoldina - São Paulo - SP, 05314-001",
        "nome": "BIG - Leopoldina",
        "latitude": "-23.537078",
        "longitude": "-46.730461",
        "cep": "05314-001",
        "horario_funcionamento": "Segunda a Sábado: 07:00 às 22:00Domingo: 08:00 às 22:00",
        "telefone": "4020-5051",
        "itens_recebidos": [
            "óleo"
        ],
        "geohash": "6gyf0e5yt6du"
    },
    {
        "endereco": "Av. Doutor Vital Brasil, 294 - Butantã - São Paulo - SP, 05503-000",
        "nome": "Center Fórmula - Farmácia de Manipulação",
        "latitude": "-23.571537",
        "longitude": "-46.707083",
        "cep": "05503-000",
        "horario_funcionamento": "Segunda a sexta. das 8h30 às 18h30. Sábados. das 9h às 13h",
        "telefone": "3030-0080",
        "itens_recebidos": [
            "medicamentos"
        ],
        "geohash": "6gycchuvy548"
    },
    {
        "endereco": "Av. Dr. Almiro Leal da Costa, 370 - Jardim das Oliveiras - São Paulo - SP, 08122-260",
        "nome": "Casas Bahia - Jardim Oliveiras",
        "latitude": "-23.4948009",
        "longitude": "-46.3782241",
        "cep": "08122-260",
        "horario_funcionamento": "-",
        "telefone": "4003-4336",
        "itens_recebidos": [
            "óleo"
        ],
        "geohash": "6gz42dukv59t"
    },
    {
        "endereco": "Av. Dr. Altino Arantes, 268 - Vila Clementino - São Paulo - SP, 04042-001",
        "nome": "Pão de Açúcar - Vila Clementino",
        "latitude": "-23.6025402",
        "longitude": "-46.6394808",
        "cep": "04042-001",
        "horario_funcionamento": "07:00 às 21:00",
        "telefone": "2276-6766",
        "itens_recebidos": [
            "plástico",
            "pilhas e baterias",
            "metal",
            "cápsulas de café",
            "óleo",
            "papel",
            "vidro",
            "isopor"
        ],
        "geohash": "6gycdxq1jrde"
    },
    {
        "endereco": "Av. Dr. Altino Arantes, 340 - Vila Clementino - São Paulo - SP, 04042-002",
        "nome": "RAIA - Vila Clementino",
        "latitude": "-23.6025073",
        "longitude": "-46.6401223",
        "cep": "04042-002",
        "horario_funcionamento": "-",
        "telefone": "22758663",
        "itens_recebidos": [
            "medicamentos"
        ],
        "geohash": "6gycdxm9qmsp"
    },
    {
        "endereco": "Av. Dr. Antônio Maria Laet, 566 - Parada Inglesa - São Paulo - SP, 02240-000",
        "nome": "Havaianas Shopping Metrô Tucuruvi",
        "latitude": "-23.4797237",
        "longitude": "-46.6024538",
        "cep": "02240-000",
        "horario_funcionamento": "Segunda a Sábado: 10:00 - 22:00Domingo: 14:00 - 20:00",
        "telefone": "4873-0745",
        "itens_recebidos": [
            "chinelos",
            "sandálias"
        ],
        "geohash": "6gyf7t9hsn7b"
    },
    {
        "endereco": "Av. Dr. Bernardino Brito Fonseca de Carvalho, 1050 - Vila Talarico - São Paulo - SP, 03535-000",
        "nome": "Ecoponto Vila Talarico",
        "latitude": "-23.5392233",
        "longitude": "-46.5157258",
        "cep": "03535-000",
        "horario_funcionamento": "Segunda a sábado, das 6hs às 22hs e aos domingos e feriados das 6hs às 18hs.",
        "telefone": "156",
        "itens_recebidos": [
            "sobras de poda de árvore",
            "móveis velhos",
            "restos de azulejos",
            "cimento",
            "materiais volumosos",
            "resíduos da construção civil",
            "tijolo",
            "papel",
            "vidro",
            "entulho",
            "alumínio"
        ],
        "geohash": "6gyfjdb6148z"
    },
    {
        "endereco": "Av. Dr. Cardoso de Melo, 510 - Vila Olímpia - São Paulo - SP, 04548-002",
        "nome": "DROGASIL - Vila Olímpia",
        "latitude": "-23.6008666",
        "longitude": "-46.6790523",
        "cep": "04548-002",
        "horario_funcionamento": "-",
        "telefone": "38419542",
        "itens_recebidos": [
            "medicamentos"
        ],
        "geohash": "6gyc9z96gpxf"
    },
    {
        "endereco": "Av. Dr. Chucri Zaidan, 230 - Vila Cordeiro - São Paulo - SP, 04583-110",
        "nome": "C&C - Morumbi",
        "latitude": "-23.6170367",
        "longitude": "-46.6967213",
        "cep": "04583-110",
        "horario_funcionamento": "Segunda a Sábado: 08:00 às 22:00Domingos e Feriados: 09:00 às 20:00",
        "telefone": "4001-0100",
        "itens_recebidos": [
            "óleo"
        ],
        "geohash": "6gyc9kskz92b"
    },
    {
        "endereco": "Av. Dr. Chucri Zaidan, 902 - Cidade Monções - São Paulo - SP, 04583-110",
        "nome": "Fast Shop - Shopping Market Place",
        "latitude": "-23.6215452",
        "longitude": "-46.6996642",
        "cep": "04583-110",
        "horario_funcionamento": "Segunda a Sábado: 10:00 às 22:00Domingo: 14:00 às 20:00",
        "telefone": "3232-3600",
        "itens_recebidos": [
            "lixo eletrônico",
            "pilhas e baterias"
        ],
        "geohash": "6gyc97f6dbyd"
    },
    {
        "endereco": "Av. Dr. Dante Pazzanese, 417 - Vila Mariana - São Paulo - SP, 04012-180",
        "nome": "PEV - Vila Mariana - Av. Dr. Dante Pazzanese",
        "latitude": "-23.5855022",
        "longitude": "-46.6518121",
        "cep": "04012-180",
        "horario_funcionamento": "-",
        "telefone": "156",
        "itens_recebidos": [
            "metal",
            "plástico",
            "papel",
            "vidro"
        ],
        "geohash": "6gycf6mhmzxx"
    },
    {
        "endereco": "Av. Dr. Francisco Mesquita, 1000 - Jardim Ibitirama - São Paulo - SP, 03153-001",
        "nome": "C&A - Central Plaza Shopping",
        "latitude": "-23.5939184",
        "longitude": "-46.5851343",
        "cep": "03153-001",
        "horario_funcionamento": "Segunda a Sábado: 10:00 às 22:00Domingo: 12:00 às 20:00",
        "telefone": "2131-0003",
        "itens_recebidos": [
            "tecidos"
        ],
        "geohash": "6gycgbverwy4"
    },
    {
        "endereco": "Av. Dr. Francisco Munhoz Filho, 379 - Cidade Líder - São Paulo - SP, 08280-000",
        "nome": "UBS Cidade Lider",
        "latitude": "-23.5540882",
        "longitude": "-46.4650173",
        "cep": "08280-000",
        "horario_funcionamento": "-",
        "telefone": "156",
        "itens_recebidos": [
            "medicamentos"
        ],
        "geohash": "6gyfn8j5qxey"
    },
    {
        "endereco": "Av. Dr. Francisco Ranieri, 476 - Lauzane Paulista - São Paulo - SP, 02435-061",
        "nome": "DROGASIL - Lauzane Paulista",
        "latitude": "-23.4799313",
        "longitude": "-46.6435847",
        "cep": "02435-061",
        "horario_funcionamento": "-",
        "telefone": "22311198/22081728",
        "itens_recebidos": [
            "medicamentos"
        ],
        "geohash": "6gyf6te5mxw6"
    },
    {
        "endereco": "Av. Dr. Gentil de Moura, 254 - Ipiranga - São Paulo - SP, 04278-080",
        "nome": "PEV - Metrô Alto do Ipiranga",
        "latitude": "-23.6026294",
        "longitude": "-46.6127800",
        "cep": "04278-080",
        "horario_funcionamento": "-",
        "telefone": "156",
        "itens_recebidos": [
            "metal",
            "plástico",
            "papel",
            "vidro"
        ],
        "geohash": "6gycer38ewbp"
    },
    {
        "endereco": "Av. Dr. Gentil de Moura, 607 - Ipiranga - São Paulo - SP, 04278-080",
        "nome": "DROGASIL - Ipiranga",
        "latitude": "-23.6019216",
        "longitude": "-46.6089901",
        "cep": "04278-080",
        "horario_funcionamento": "-",
        "telefone": "50616559/50613875",
        "itens_recebidos": [
            "medicamentos"
        ],
        "geohash": "6gycerkkgffj"
    },
    {
        "endereco": "Av. Dr. Guilherme Dumont Vilares, 1078 - Jardim Londrina - São Paulo - SP, 05640-002",
        "nome": "DROGASIL - Jardim Londrina",
        "latitude": "-23.6135208",
        "longitude": "-46.7412889",
        "cep": "05640-002",
        "horario_funcionamento": "-",
        "telefone": "37724261/37724262",
        "itens_recebidos": [
            "medicamentos"
        ],
        "geohash": "6gyc8mk1308v"
    },
    {
        "endereco": "Av. Dr. Guilherme Dumont Vilares, 2481 - Vila Andrade - São Paulo - SP, 05640-000",
        "nome": "RAIA - Vila Andrade",
        "latitude": "-23.6266312",
        "longitude": "-46.7363149",
        "cep": "05640-000",
        "horario_funcionamento": "-",
        "telefone": "37422048",
        "itens_recebidos": [
            "medicamentos"
        ],
        "geohash": "6gyc86zsuutz"
    },
    {
        "endereco": "Av. Dr. Ricardo Jafet, 1501 - Ipiranga - São Paulo - SP, 04260-020",
        "nome": "Extra Hiper - Ricardo Jafet",
        "latitude": "-23.5890009",
        "longitude": "-46.6185051",
        "cep": "04260-020",
        "horario_funcionamento": "24h",
        "telefone": "0800 11 50 60",
        "itens_recebidos": [
            "lâmpadas",
            "lixo eletrônico"
        ],
        "geohash": "6gycg1v2n5e0"
    },
    {
        "endereco": "Av. Dr. Salvador Rocco, 400 - Parque Fernanda - São Paulo - SP, 05888-050",
        "nome": "Ecoponto Parque Fernanda",
        "latitude": "-23.6717900",
        "longitude": "-46.7923000",
        "cep": "05888-050",
        "horario_funcionamento": "Segunda a sábado, das 6hs às 22hs e aos domingos e feriados das 6hs às 18hs.",
        "telefone": "156",
        "itens_recebidos": [
            "sobras de poda de árvore",
            "móveis velhos",
            "restos de azulejos",
            "cimento",
            "materiais volumosos",
            "resíduos da construção civil",
            "tijolo",
            "papel",
            "vidro",
            "entulho",
            "alumínio"
        ],
        "geohash": "6gy9r4wvu6s2"
    },
    {
        "endereco": "Av. Dr. Silva Melo, 4 - Jardim Anhanguera - São Paulo - SP, 04675-010",
        "nome": "Ecourbis Cyclea",
        "latitude": "-23.6467351",
        "longitude": "-46.6866519",
        "cep": "04675-010",
        "horario_funcionamento": "-",
        "telefone": "156",
        "itens_recebidos": [
            "metal",
            "plástico",
            "papel",
            "vidro"
        ],
        "geohash": "6gyc3x5zf1j4"
    },
    {
        "endereco": "Av. Dr. Sylvio de Campos, 25 - Vila Perus - São Paulo - SP, 05204-000",
        "nome": "Casas Bahia - Perus",
        "latitude": "-23.4062229",
        "longitude": "-46.7534789",
        "cep": "05204-000",
        "horario_funcionamento": "-",
        "telefone": "4003-4336",
        "itens_recebidos": [
            "óleo"
        ],
        "geohash": "6gyfb550ugz3"
    },
    {
        "endereco": "Av. Edu Chaves, 1197 - Parque Edu Chaves - São Paulo - SP, 02229-001",
        "nome": "UBS Parque Edu Chaves",
        "latitude": "-23.4776597",
        "longitude": "-46.5685554",
        "cep": "02229-001",
        "horario_funcionamento": "-",
        "telefone": "156",
        "itens_recebidos": [
            "medicamentos"
        ],
        "geohash": "6gyfkq1bdp02"
    },
    {
        "endereco": "Av. Eduardo Pereira Ramos, 810 - Jardim Orly - São Paulo - SP, 04432-000",
        "nome": "UBS São Jorge - Cidade Ademar",
        "latitude": "-23.6856033",
        "longitude": "-46.6614845",
        "cep": "04432-000",
        "horario_funcionamento": "-",
        "telefone": "156",
        "itens_recebidos": [
            "medicamentos"
        ],
        "geohash": "6gyc60njkee2"
    },
    {
        "endereco": "Av. Eliseu de Almeida, 2880 - Instituto de Previdencia - São Paulo - SP, 05533-000",
        "nome": "DROGASIL - Instituto de Previdencia",
        "latitude": "-23.5891478",
        "longitude": "-46.7342479",
        "cep": "05533-000",
        "horario_funcionamento": "-",
        "telefone": "35011404/37430945",
        "itens_recebidos": [
            "medicamentos"
        ],
        "geohash": "6gycb99pm05h"
    },
    {
        "endereco": "Av. Eliseu de Almeida, 3100 - Instituto de Previdencia - São Paulo - SP, 05533-000",
        "nome": "Conibase Home Center - Butantã",
        "latitude": "-23.5898544",
        "longitude": "-46.7361764",
        "cep": "05533-000",
        "horario_funcionamento": "Segunda a Sexta: 07:00 às 20:00Sábado: 07:00 às 18:00Domingos: 09:00 às 17:00",
        "telefone": "2141-2222",
        "itens_recebidos": [
            "lâmpadas"
        ],
        "geohash": "6gycb3xg0hmj"
    },
    {
        "endereco": "Av. Elísio Teixeira Leite, 2160 - Vila Brasilandia - São Paulo - SP, 02801-000",
        "nome": "DROGASIL - Vila Brasilandia",
        "latitude": "-23.475711",
        "longitude": "-46.7039106",
        "cep": "02801-000",
        "horario_funcionamento": "-",
        "telefone": "23052684",
        "itens_recebidos": [
            "medicamentos"
        ],
        "geohash": "6gyf3nrk0421"
    },
    {
        "endereco": "Av. Elísio Teixeira Leite, 7703 - Parada De Taipas - São Paulo - SP, 02810-000",
        "nome": "UBS União Das Vilas de Taipas",
        "latitude": "-23.4356556",
        "longitude": "-46.7180490",
        "cep": "02810-000",
        "horario_funcionamento": "-",
        "telefone": "156",
        "itens_recebidos": [
            "medicamentos"
        ],
        "geohash": "6gyf8vsvqt1u"
    },
    {
        "endereco": "Av. Embargador Macedo Soares, 977 - Parque Res. da Lapa - São Paulo - SP, 05038-150",
        "nome": "GoodStorage - Unidade Lapa",
        "latitude": "-23.5092777",
        "longitude": "-46.6981172",
        "cep": "05038-150",
        "horario_funcionamento": "Segunda a Sexta: 07:00 - 19:00",
        "telefone": "2348-4663",
        "itens_recebidos": [],
        "geohash": "6gyf3272x100"
    },
    {
        "endereco": "Av. Eng. Armando de Arruda Pereira, 1750 - Jabaquara - São Paulo - SP, 04308-001",
        "nome": "DROGASIL - Jabaquara",
        "latitude": "-23.643172",
        "longitude": "-46.641552",
        "cep": "04308-001",
        "horario_funcionamento": "-",
        "telefone": "50115082/50115103",
        "itens_recebidos": [
            "medicamentos"
        ],
        "geohash": "6gyc6xust161"
    },
    {
        "endereco": "Av. Eng. Armando de Arruda Pereira, 1827 - Jabaquara - São Paulo - SP, 04309-011",
        "nome": "Pão de Açúcar - Jabaquara",
        "latitude": "-23.6438197",
        "longitude": "-46.6409562",
        "cep": "04309-011",
        "horario_funcionamento": "06:00 às 22:00",
        "telefone": "2547-3740",
        "itens_recebidos": [
            "plástico",
            "pilhas e baterias",
            "metal",
            "cápsulas de café",
            "óleo",
            "papel",
            "vidro"
        ],
        "geohash": "6gyc6xv0fbw3"
    },
    {
        "endereco": "Av. Eng. Caetano Álvares, 3142 - Limão - São Paulo - SP, 02535-008",
        "nome": "Ecoponto Parque Peruche",
        "latitude": "-23.4916307",
        "longitude": "-46.6558200",
        "cep": "02535-008",
        "horario_funcionamento": "Segunda a sábado, das 6hs às 22hs e aos domingos e feriados das 6hs às 18hs.",
        "telefone": "156",
        "itens_recebidos": [
            "sobras de poda de árvore",
            "móveis velhos",
            "restos de azulejos",
            "cimento",
            "materiais volumosos",
            "resíduos da construção civil",
            "tijolo",
            "papel",
            "vidro",
            "entulho",
            "alumínio"
        ],
        "geohash": "6gyf676r2deh"
    },
    {
        "endereco": "Av. Eng. Caetano Álvares, 4906 - Imirim - São Paulo - SP, 02413-000",
        "nome": "RAIA - Imirim",
        "latitude": "-23.4869526",
        "longitude": "-46.6410225",
        "cep": "02413-000",
        "horario_funcionamento": "-",
        "telefone": "22082202",
        "itens_recebidos": [
            "medicamentos"
        ],
        "geohash": "6gyf6sm496sy"
    },
    {
        "endereco": "Av. Engenheiro Luís Carlos Berrini, 829 - Itaim Bibi - São Paulo - SP, 04571-010",
        "nome": "DROGASIL - Itaim Bibi",
        "latitude": "-23.6041445",
        "longitude": "-46.6921725",
        "cep": "04571-010",
        "horario_funcionamento": "-",
        "telefone": "55055022/55054579",
        "itens_recebidos": [
            "medicamentos"
        ],
        "geohash": "6gyc9qzzcs89"
    },
    {
        "endereco": "Av. Engenho Novo, 120 - Jardim Tiete - São Paulo - SP, 03943-020",
        "nome": "AMA/UBS Integrada Jardim Tiete I - Oscar Pereira da Silva",
        "latitude": "-23.5987713",
        "longitude": "-46.495013",
        "cep": "03943-020",
        "horario_funcionamento": "Segunda a Sábado das 7hs às 19hs",
        "telefone": "156",
        "itens_recebidos": [
            "óleo"
        ],
        "geohash": "6gyctzzr5wjt"
    },
    {
        "endereco": "Av. Ermano Marchetti, s/n - Lapa - São Paulo - SP, 02675-031",
        "nome": "PEV - Praça Sebastião Jaime Pinto",
        "latitude": "-23.5138500",
        "longitude": "-46.7029400",
        "cep": "02675-031",
        "horario_funcionamento": "-",
        "telefone": "156",
        "itens_recebidos": [
            "metal",
            "plástico",
            "papel",
            "vidro"
        ],
        "geohash": "6gyf1prvysev"
    },
    {
        "endereco": "Av. Eugênio Bartolomai, 213 - Jardim Santa Helena - São Paulo - SP, 04785-040",
        "nome": "Ecourbis Conteineres",
        "latitude": "-23.6941863",
        "longitude": "-46.7094013",
        "cep": "04785-040",
        "horario_funcionamento": "-",
        "telefone": "156",
        "itens_recebidos": [
            "metal",
            "plástico",
            "papel",
            "vidro"
        ],
        "geohash": "6gyc1ne725d1"
    },
    {
        "endereco": "Av. Fagundes Filho, 134 - Vila Monte Alegre - São Paulo - SP, 04304-000",
        "nome": "RAIA - Vila Monte Alegre",
        "latitude": "-23.6270991",
        "longitude": "-46.6399974",
        "cep": "04304-000",
        "horario_funcionamento": "-",
        "telefone": "50710224",
        "itens_recebidos": [
            "medicamentos"
        ],
        "geohash": "6gycddvf1m3r"
    },
    {
        "endereco": "Av. Fernando Amaro Miranda, 51 - Jardim Colonial - São Paulo - SP, 04821-100",
        "nome": "UBS Jardim Orion/Guanhembu",
        "latitude": "-23.7270807",
        "longitude": "-46.6855404",
        "cep": "04821-100",
        "horario_funcionamento": "-",
        "telefone": "156",
        "itens_recebidos": [
            "medicamentos",
            "pilhas e baterias"
        ],
        "geohash": "6gyc18sesp9f"
    },
    {
        "endereco": "Av. Fernando Cerqueira César Coimbra, 1000 - Tamboré - São Paulo - SP, 06465-090",
        "nome": "Leroy Merlin - Tamboré",
        "latitude": "-23.5083632",
        "longitude": "-46.8354273",
        "cep": "06465-090",
        "horario_funcionamento": "Segunda a Sábado: 08:00 às 22:00 Domingo: 09:00 às 20:00",
        "telefone": "4020-5376",
        "itens_recebidos": [
            "lixo eletrônico",
            "pilhas e baterias"
        ],
        "geohash": "6gydq0rmz7qp"
    },
    {
        "endereco": "Av. Fim de Semana, 527 - Jardim Casablanca - São Paulo - SP, 05846-270",
        "nome": "PEV - EMEF Procópio Ferreira",
        "latitude": "-23.6574098",
        "longitude": "-46.7468316",
        "cep": "05846-270",
        "horario_funcionamento": "-",
        "telefone": "156",
        "itens_recebidos": [
            "metal",
            "plástico",
            "papel",
            "vidro"
        ],
        "geohash": "6gyc2jrcxg5v"
    },
    {
        "endereco": "Av. Francisco Matarazzo, 1239 - Água Branca - São Paulo - SP, 05001-100",
        "nome": "PEV - Praça Sousa Aranha",
        "latitude": "-23.5264002",
        "longitude": "-46.6739458",
        "cep": "05001-100",
        "horario_funcionamento": "-",
        "telefone": "156",
        "itens_recebidos": [
            "metal",
            "plástico",
            "papel",
            "vidro"
        ],
        "geohash": "6gyf1vjhf1ps"
    },
    {
        "endereco": "Av. Francisco Matarazzo, s/n - Água Branca - São Paulo - SP, 05003-020",
        "nome": "C&A - Shopping West Plaza",
        "latitude": "-23.5225847",
        "longitude": "-46.6690016",
        "cep": "05003-020",
        "horario_funcionamento": "Segunda a Sábado: 10:00 às 22:00Domingo: 12:00 às 20:00",
        "telefone": "2131-0008",
        "itens_recebidos": [
            "tecidos"
        ],
        "geohash": "6gyf4jbej2qh"
    },
    {
        "endereco": "Av. Gabriela Mistral, 1168 - Penha de França - São Paulo - SP, 03701-001",
        "nome": "UBS Engenheiro Trindade",
        "latitude": "-23.5109767",
        "longitude": "-46.550746",
        "cep": "03701-001",
        "horario_funcionamento": "-",
        "telefone": "156",
        "itens_recebidos": [
            "medicamentos"
        ],
        "geohash": "6gyfhxyy8urc"
    },